"NAME","STREET","POST_CODE","CITY","LONGITUDE","LATITUDE","HUMIDITY_AVG","PRESSURE_AVG","TEMPERATURE_AVG","PM10_AVG","PM25_AVG","TIMESTAMP"
"SZKO?A PODSTAWOWA Z ODDZIA?AMI INTEGRACYJNYMI NR 6 IM. SZARYCH SZEREG?W W GRODZISKU MAZOWIECKIM","UL. SPORTOWA","05-825","GRODZISK MAZOWIECKI","20.6192335","52.0987683","69.39999999999999","979.0583333333334","12.308333333333332","3.9250000000000003","2.8833333333333333","2023-11-03 09:00:00.0"
"TECHNIKUM NR 5 W RYBNIKU","UL. J?ZEFA RYMERA","44-270","RYBNIK","18.4969188","50.0607178","68.51666666666667","959.3666666666667","14.975","13.558333333333332","10.783333333333333","2023-11-03 09:00:00.0"
"SZKO?A PODSTAWOWA IM. HENRYKA SIENKIEWICZA W D?BIU W ZESPOLE SZKOLNO - PRZEDSZKOLNYM W D?BIU","ul. Stra?acka","66-615","D?bie","15.14514209","52.0078805","90.23333333333333","980.6583333333333","9.674999999999999","10.058333333333334","9.158333333333333","2023-11-03 09:00:00.0"
"PUBLICZNA SZKO?A PODSTAWOWA W CISIU","UL. CISIA?SKA","42-290","CISIE","21.3837731","52.2123551","70.56666666666666","958.1083333333335","14.725","34.641666666666666","29.40833333333333","2023-11-03 09:00:00.0"
"SZKO?A PODSTAWOWA SPECJALNA NR 7 IM. MARII KONOPNICKIEJ W ?WIDNICY","UL. ROTMISTRZA WITOLDA PILECKIEGO","58-100","?WIDNICA","16.49738157","50.8520284","89.66666666666667","962.1833333333334","10.716666666666667","22.625","17.483333333333334","2023-11-03 09:00:00.0"
"SZKO?A PODSTAWOWA NR 4 IM. J?ZEFA PUKOWCA W PSZCZYNIE","ZYGMUNTA KRASI?SKIEGO","43-200","PSZCZYNA","18.961125","49.971182","73.73333333333333","961.1999999999999","15.1","5.333333333333333","2.7933333333333334","2023-11-03 09:00:00.0"
"SZKO?A PODSTAWOWA NR 2 IM. INTEGRACJI EUROPEJSKIEJ W TARNOWIE PODG?RNYM","UL. POZNA?SKA","62-080","TARNOWO PODG?RNE","16.650980","52.461640","49.70000000000001","1003.7000000000002","28.100000000000005","16.2","8.85","2023-11-03 09:00:00.0"
"SZKO?A PODSTAWOWA IM. JANA PAW?A II W RUDNEJ","PIASKOWA","59-305","RUDNA","16.26114","51.51127","99.90000000000002","980.1666666666666","10.266666666666667","0.0","0.0","2023-11-03 09:00:00.0"
"SZKO?A PODSTAWOWA IM. STANIS?AWA STASZICA W BOBOWEJ","UL. BOHATER?W BOBOWEJ","38-350","BOBOWA","20.9509659","49.7102798","69.76666666666667","960.2666666666668","12.416666666666666","7.625","6.25","2023-11-03 09:00:00.0"
"I LICEUM OG?LNOKSZTA?C?CE IM. J?DRZEJA ?NIADECKIEGO W PABIANICACH","UL. STANIS?AWA MONIUSZKI","95-200","PABIANICE","19.32977177","51.65677453","79.3","967.75","12.075000000000001","7.733333333333333","6.925","2023-11-03 09:00:00.0"
"SZKO?A PODSTAWOWA NR 6 IM. ELIZY ORZESZKOWEJ W ?YRARDOWIE","UL. J?ZEFA MIRECKIEGO","96-300","?YRARD?W","20.446088","52.057653","71.24166666666666","977.8166666666666","11.966666666666667","4.383333333333334","3.8333333333333335","2023-11-03 09:00:00.0"
"SZKO?A PODSTAWOWA SPECJALNA W DOBRODZIENIU","UL. PIASTOWSKA","46-380","DOBRODZIE?","18.44702463","50.72184475","80.38181818181819","961.4363636363636","13.981818181818182","18.38181818181818","18.62727272727273","2023-11-03 09:00:00.0"
"SZKO?A PODSTAWOWA NR 21 IM. KAROLA WOJTY?Y W ZESPOLE EDUKACYJNYM NR 3 W ZIELONEJ G?RZE","UL. OSIEDLE POMORSKIE","65-548","ZIELONA G?RA","15.5543765","51.9363095","100.0","971.125","10.325000000000001","6.625","6.241666666666667","2023-11-03 09:00:00.0"
"SZKO?A PODSTAWOWA NR 24 IM. WIS?AWY SZYMBORSKIEJ W ZESPOLE SZKOLNO-PRZEDSZKOLNYM NR 14 W RYBNIKU","UL. LEOPOLDA STAFFA","44-274","RYBNIK","18.540553","50.143783","73.73333333333333","956.7416666666667","14.083333333333334","5.3","5.666666666666667","2023-11-03 09:00:00.0"
"SZKO?A PODSTAWOWA IM.ADAMA MICKIEWICZA W STRONIU","","34-604","STRONIE","20.52389925","49.61395897","67.49166666666666","943.4499999999999","12.408333333333333","2.1999999999999997","1.6083333333333334","2023-11-03 09:00:00.0"
"SZKO?A PODSTAWOWA IM. KS. JANA RECA W SIEDLISKACH","","38-350","SIEDLISKA","20.9844157","49.7300798","68.54166666666667","955.9666666666667","10.833333333333334","4.433333333333334","3.8083333333333336","2023-11-03 09:00:00.0"
"ZESP?? SZK?? SPECJALNYCH W OSTROWCU ?WI?TOKRZYSKIM","I?ZECKA","27-400","OSTROWIEC ?WI?TOKRZYSKI","21.386931","50.942931","93.30333333333333","961.1366666666667","10.709999999999999","7.133333333333333","4.043333333333333","2023-11-03 09:00:00.0"
"SZKO?A PODSTAWOWA IM.MARII KONOPNICKIEJ W ROZTOCE","","34-606","ROZTOKA","20.4571424","49.6263815","63.96666666666667","930.8416666666667","11.966666666666667","1.6083333333333334","1.2166666666666666","2023-11-03 09:00:00.0"
"SZKO?A PODSTAWOWA IM. JANA PAW?A II W KAZIMIERZU BISKUPIM","W?GLEWSKA","62-530","KAZIMIERZ BISKUPI","18.164476","52.307454","99.90000000000002","973.6","11.9","10.033333333333333","4.760000000000001","2023-11-03 09:00:00.0"
"KOLEGIUM EUROPEJSKIE - EUROPEJSKIE NIEPUBLICZNE LICEUM OG?LNOKSZTA?C?CE W KRAKOWIE","UL. ?LUSARSKA","30-710","KRAK?W-PODG?RZE","19.9610702","50.0483394","72.06666666666666","967.0333333333333","13.033333333333333","3.0666666666666664","2.1666666666666665","2023-11-03 09:00:00.0"
"SZKO?A PODSTAWOWA NR 3 IM. MIKO?AJA KOPERNIKA W W?GROWCU","UL. KLASZTORNA","62-100","W?GROWIEC","17.2156193","52.8174847","87.125","978.0","11.85","19.608333333333334","18.45","2023-11-03 09:00:00.0"
"SZKO?A PODSTAWOWA SPECJALNA NR 2 W SPECJALNYM O?RODKU SZKOLNO-WYCHOWAWCZYM IM. POLSKICH OLIMPIJCZYK?W W WARLUBIU","UL. SZKOLNA","86-160","WARLUBIE","18.6275983","53.5896901","88.5","979.3083333333333","10.966666666666667","10.266666666666667","10.416666666666666","2023-11-03 09:00:00.0"
"PUBLICZNA SZKO?A PODSTAWOWA IM. JANA PAW?A II W WOLI TACZOWSKIEJ","","26-652","WOLA TACZOWSKA","21.04512254","51.44935931","65.65833333333333","972.1333333333333","11.416666666666666","5.833333333333333","4.825","2023-11-03 09:00:00.0"
"SZKO?A PODSTAWOWA W KOKANINIE","","62-817","KOKANIN","18.0903799","51.8135676","94.35833333333333","1085.1000000000001","5.0","4.858333333333333","5.316666666666666","2023-11-03 09:00:00.0"
"PUBLICZNA SZKO?A PODSTAWOWA W STOBIECKU SZLACHECKIM","","97-561","STOBIECKO SZLACHECKIE","19.38629184","51.10621326","72.85833333333333","963.8583333333332","11.666666666666666","6.833333333333333","6.408333333333334","2023-11-03 09:00:00.0"
"ZESP?? SZKOLNO-PRZEDSZKOLNY W WI?LE WIELKIEJ","HODOWC?W","43-243","WIS?A WIELKA","18.85320","49.95291","99.90000000000002","962.0333333333334","14.733333333333334","1.4333333333333333","0.7799999999999999","2023-11-03 09:00:00.0"
"SZKO?A PODSTAWOWA NR 8 IM. JANUSZA KORCZAKA W NOWEJ SOLI","UL. MATEJKI","67-100","NOWA S?L","15.71707","51.80344","87.05","981.3666666666667","10.75","12.833333333333334","10.341666666666667","2023-11-03 09:00:00.0"
"SZKO?A PODSTAWOWA IM. JANA PAW?A II W ?OSOSINIE DOLNEJ","","33-314","?OSOSINA DOLNA","20.6247311","49.7405248","70.63333333333334","962.2083333333334","13.475","2.9583333333333335","2.9583333333333335","2023-11-03 09:00:00.0"
"ZESP?? SZKOLNO-PRZEDSZKOLNY W JANKOWICACH","BAZIOWA","43-215","JANKOWICE","18.989423","50.002529","69.32666666666667","966.13","15.206666666666669","3.816666666666667","2.25","2023-11-03 09:00:00.0"
"SZKO?A PODSTAWOWA IM. B?. JULII RODZI?SKIEJ W NAWOJOWEJ","UL. PARKOWA","33-335","NAWOJOWA","20.7469101","49.5555587","67.19166666666666","950.6999999999999","12.558333333333332","0.5083333333333334","0.3","2023-11-03 09:00:00.0"
"SZKO?A PODSTAWOWA NR 3 IM. STANIS?AWA STASZICA W ZESPOLE SZKOLNO - PRZEDSZKOLNYM W BLACHOWNI","UL. WSP?LNA","42-290","BLACHOWNIA","18.9731383","50.7724027","70.13333333333334","956.4499999999999","13.674999999999999","6.516666666666667","4.891666666666667","2023-11-03 09:00:00.0"
"SZKO?A PODSTAWOWA NR 9 IM. 42 PU?KU PIECHOTY W BIA?YMSTOKU","UL. LEGIONOWA","15-281","BIA?YSTOK","23.2116598","53.1427806","74.71666666666667","982.0916666666667","8.733333333333333","7.008333333333333","6.058333333333334","2023-11-03 09:00:00.0"
"NIEPUBLICZNA SZKO?A PODSTAWOWA IM. JANUSZA KORCZAKA W SZYD??WCE","","08-207","Szyd??wka","22.62314895","52.13664373","77.37","978.4100000000001","8.75","21.130000000000003","19.61","2023-11-03 09:00:00.0"
"SZKO?A PODSTAWOWA IM. MIKO?AJA KOPERNIKA W PSZENNIE","UL. WROC?AWSKA","58-125","PSZENNO","16.5392403","50.8557823","86.25","963.0583333333334","10.658333333333333","6.658333333333334","6.816666666666666","2023-11-03 09:00:00.0"
"SZKO?A PODSTAWOWA IM. ARKADEGO FIEDLERA W RASZKOWIE Z SIEDZIB? W POGRZYBOWIE","POGRZYB?W","63-440","POGRZYB?W","17.723099","51.713966","41.16","1027.58","8.3","29.92","16.61","2023-11-03 09:00:00.0"
"SZKO?A PODSTAWOWA W D?BROWIE BOLES?AWIECKIEJ","D?BROWA BOLES?AWIECKA","59-700","D?BROWA BOLES?AWIECKA","15.57337","51.325929","99.90000000000002","969.9666666666667","11.0","36.06666666666666","19.47","2023-11-03 09:00:00.0"
"TECHNIKUM W MO?KACH","UL. SZKOLNA","19-100","MO?KI","22.793105","53.401592","69.83","976.72","9.74","8.190000000000001","7.42","2023-11-03 09:00:00.0"
"ZESP?? SZKOLNO - PRZEDSZKOLNY IM. JANA PAW?A II W G?RKACH ?L?SKICH - SZKO?A PODSTAWOWA","UL. OFIAR O?WI?CIMSKICH","47-440","G?rki ?l?skie","18.38847178","50.14082465","86.10000000000001","964.4250000000001","13.1","13.183333333333332","11.700000000000001","2023-11-03 09:00:00.0"
"SZKO?A PODSTAWOWA W ?CINAWCE DOLNEJ","","57-410","?CINAWKA DOLNA","16.5360171","50.4966472","90.93333333333334","952.3916666666668","9.525","17.466666666666665","12.741666666666667","2023-11-03 09:00:00.0"
"SZKO?A PODSTAWOWA W GROMOTACH","","14-204","GROMOTY","19.7000004","53.5982637","80.77499999999999","978.5","9.9","4.858333333333333","5.308333333333334","2023-11-03 09:00:00.0"
"II LICEUM OG?LNOKSZTA?C?CE IM. ZIEMI OLKUSKIEJ W OLKUSZU","UL. STEFANA ?EROMSKIEGO","32-305","OLKUSZ","19.5635115","50.2659999","72.10000000000001","943.6750000000001","11.533333333333333","4.058333333333334","4.083333333333333","2023-11-03 09:00:00.0"
"ZESP?? SZK?? PONADGIMNAZJALNYCH CENTRUM KSZTA?CENIA USTAWICZNEGO W PRZYGODZICACH","PTR","63-421","PRZYGODZICE","17.822685","51.59023","99.90000000000002","979.9","10.966666666666667","7.266666666666667","4.056666666666667","2023-11-03 09:00:00.0"
"SZKO?A PODSTAWOWA NR 2 IM. JANA PAW?A II W SUCHYM LESIE FILIA","KONWALIOWA","62-002","SUCHY LAS","16.87051","52.48013","72.2","1005.6","26.5","9.7","5.43","2023-11-03 09:00:00.0"
"SZKO?A PODSTAWOWA IM. NOBLIST?W POLSKICH W BRZEZIEJ ??CE","UL. SZKOLNA","55-093","BRZEZIA ??KA","17.2485849","51.12506","87.84166666666665","974.0999999999999","12.033333333333333","9.633333333333335","7.866666666666666","2023-11-03 09:00:00.0"
"SZKO?A PODSTAWOWA IM. ?W. JADWIGI KR?LOWEJ W PIENI??KOWICACH ZE SZKO?? PODSTAWOW? FILIALN? W DZIALE","","34-408","DZIA?","19.878498","49.4941093","77.93333333333334","920.0166666666668","9.200000000000001","10.233333333333333","10.450000000000001","2023-11-03 09:00:00.0"
"SZKO?A PODSTAWOWA IM. EMILII SCZANIECKIEJ W SZCZA?CU","UL. SZKOLNA","66-225","SZCZANIEC","15.6816113","52.2692122","93.46666666666665","981.6916666666666","9.808333333333334","15.325000000000001","14.875","2023-11-03 09:00:00.0"
"SZKO?A PODSTAWOWA NR 34 IM. KORNELA MAKUSZY?SKIEGO W LUBLINIE","IRENY KOSMOWSKIEJ","20-815","LUBLIN","22.5413696849013","51.2606404685152","76.00833333333334","972.0","7.541666666666667","11.666666666666666","9.916666666666666","2023-11-03 09:00:00.0"
"I LICEUM OG?LNOKSZTA?C?CE IM. TADEUSZA KO?CIUSZKI W D?BROWIE TARNOWSKIEJ","UL. MARSZA?KA J?ZEFA PI?SUDSKIEGO","33-200","D?BROWA TARNOWSKA","20.9830385","50.16866618","69.675","1100.0","12.625","7.691666666666666","5.8","2023-11-03 09:00:00.0"
"SZKO?A PODSTAWOWA NR 2 IM. TADEUSZA KO?CIUSZKI W WIELICZCE - FILIA W SU?KOWIE","","32-020","SU?K?W","20.1069823","49.9883821","71.34166666666667","957.725","12.991666666666667","3.4333333333333336","2.9333333333333336","2023-11-03 09:00:00.0"
"SZKO?A PODSTAWOWA IM. TADEUSZA KO?CIUSZKI W ??TOWICACH","","33-121","??TOWICE","20.845262","49.994632","70.98333333333333","969.8666666666667","11.850000000000001","6.683333333333334","5.75","2023-11-03 09:00:00.0"
"SZKO?A PODSTAWOWA IM. MIKO?AJA KOPERNIKA W MIKO?AJOWICACH","","33-121","MIKO?AJOWICE","20.869079","49.979718","73.79166666666667","970.525","12.700000000000001","5.333333333333333","4.783333333333333","2023-11-03 09:00:00.0"
"SPO?ECZNA SZKO?A PODSTAWOWA SPO?ECZNEGO TOWARZYSTWA O?WIATOWEGO W KLUCZBORKU","UL. LIGONIA","46-203","KLUCZBORK","18.208403","50.980243","92.98333333333333","968.4499999999999","12.391666666666667","5.491666666666667","4.575","2023-11-03 09:00:00.0"
"PUBLICZNA SZKO?A PODSTAWOWA IM. JANUSZA KORCZAKA W JASIENICY","UL. PAW?A JASIENICY","07-304","JASIENICA","22.04034","52.80435","36.391666666666666","982.1916666666666","26.266666666666666","11.25","2.75","2023-11-03 09:00:00.0"
"I LICEUM OG?LNOKSZTA?C?CE IM. PROF. ZBIGNIEWA RELIGI W ZABRZU","UL. WOLNO?CI","41-800","ZABRZE","18.79133707116482","50.302459290066544","64.95833333333333","959.5500000000001","14.625","6.358333333333333","5.858333333333333","2023-11-03 09:00:00.0"
"SPO?ECZNA SZKO?A PODSTAWOWA W ?WIDNICY","UL. ADAMA MICKIEWICZA","58-100","?WIDNICA","16.677532","51.0740481","85.31666666666666","961.3583333333332","10.958333333333334","5.7250000000000005","4.533333333333334","2023-11-03 09:00:00.0"
"SZKO?A PODSTAWOWA NR 2 IM. KRZYSZTOFA KAMILA BACZY?SKIEGO W PU?AWACH","AL. MA?A","24-100","PU?AWY","21.96276919","51.41579363","65.64166666666667","979.6166666666667","12.0","6.858333333333333","5.75","2023-11-03 09:00:00.0"
"ZESP?? SZK?? W PIOTROWIE","","62-814","PIOTR?W","18.05485","51.81570","92.89999999999999","973.8666666666667","11.233333333333334","10.4","5.866666666666667","2023-11-03 09:00:00.0"
"SZKO?A PODSTAWOWA W MOKRZESZOWIE","","58-160","MOKRZESZ?W","16.371249","50.8485349","87.24166666666667","953.9250000000001","10.283333333333333","4.908333333333333","4.866666666666666","2023-11-03 09:00:00.0"
"LICEUM OG?LNOKSZTA?C?CE IM. ARTURA GROTTGERA W GRYBOWIE","UL. KO?CIUSZKI","33-330","GRYB?W","20.9492019","49.6229909","71.14166666666667","955.5833333333334","11.216666666666667","4.733333333333333","3.625","2023-11-03 09:00:00.0"
"SZKO?A PODSTAWOWA IM. FRYDERYKA CHOPINA W WOJSZCZYCACH","","05-180","WOJSZCZYCE","20.6139434","52.494382","75.39999999999999","980.1166666666667","10.466666666666667","4.333333333333333","3.341666666666667","2023-11-03 09:00:00.0"
"PUBLICZNA SZKO?A PODSTAWOWA IM. STEFANA KARDYNA?A WYSZY?SKIEGO PRYMASA TYSI?CLECIA W ?WI?TEJ KATARZYNIE","UL. G??WNA","55-010","?WI?TA KATARZYNA","17.1137922","51.0249803","88.91666666666667","974.2333333333332","11.308333333333332","16.308333333333334","14.299999999999999","2023-11-03 09:00:00.0"
"SZKO?A PODSTAWOWA IM.ADAMA MICKIEWICZA W TOMICACH","UL. FLORIA?SKA","34-100","TOMICE","19.4837812","49.8974869","67.44166666666666","957.7083333333334","15.408333333333333","1.9833333333333334","1.7750000000000001","2023-11-03 09:00:00.0"
"ZESP?? SZKOLNO-PRZEDSZKOLNY W STUDZIENICACH","?W. JANA PAW?A II 74","43-215","STUDZIENICE","18.983576","50.016514","67.43333333333334","969.8666666666667","15.233333333333334","1.0333333333333334","0.5666666666666667","2023-11-03 09:00:00.0"
"MIEJSKA SZKO?A PODSTAWOWA NR 13 IM. POWSTA?C?W ?L?SKICH W PIEKARACH ?L?SKICH","UL. MARII CURIE-SK?ODOWSKIEJ","41-949","PIEKARY ?L?SKIE","18.9974136","50.3650768","71.78333333333333","955.1500000000001","13.816666666666668","3.7916666666666665","3.1333333333333333","2023-11-03 09:00:00.0"
"LICEUM OG?LNOKSZTA?C?CE IM. W?ADYS?AWA JAGIE??Y W ODOLANOWIE","KROTOSZY?SKA","63-430","ODOLAN?W","17.66024","51.58063","94.86666666666667","972.4333333333334","11.566666666666668","16.599999999999998","8.146666666666667","2023-11-03 09:00:00.0"
"SZKO?A PODSTAWOWA Z ODDZIA?AMI INTEGRACYJNYMI NR 39 IM. OBRO?C?W POKOJU W GLIWICACH","UL. OBRO?C?W POKOJU","44-105","GLIWICE","18.6713802","50.2944923","71.14166666666667","960.75","14.775","5.2","4.558333333333334","2023-11-03 09:00:00.0"
"SZKO?A PODSTAWOWA IM. PPOR. EMILII GIERCZAK W POSTOMINIE","","76-113","POSTOMINO","16.71239247","54.48931415","90.69166666666666","982.9916666666667","11.191666666666668","10.791666666666666","9.783333333333333","2023-11-03 09:00:00.0"
"SZKO?A PODSTAWOWA W PO?KUNACH","","16-500","PO?KUNY","23.4302158","54.0869616","82.13333333333334","981.75","7.016666666666667","9.133333333333333","6.758333333333333","2023-11-03 09:00:00.0"
"SZKO?A PODSTAWOWA NR 2 IM. FRYDERYKA CHOPINA W MALKINI G?RNEJ","UL. LE?NA","07-320","MA?KINIA G?RNA","22.05928062","52.6945031","63.475","982.6","10.875","10.975","9.950000000000001","2023-11-03 09:00:00.0"
"SZKO?A PODSTAWOWA NR 4 IM. I SAMODZIELNEJ WARSZAWSKIEJ BRYGADY KAWALERII W GRYFICACH","UL. SIENKIEWICZA","72-300","GRYFICE","15.19512694","53.9126862","100.0","985.2666666666668","10.424999999999999","17.658333333333335","16.591666666666665","2023-11-03 09:00:00.0"
"PUBLICZNA SZKO?A PODSTAWOWA W LATOSZYNIE","","39-200","LATOSZYN","21.38439","50.02607","63.61666666666667","969.1583333333333","13.858333333333334","5.625","4.158333333333333","2023-11-03 09:00:00.0"
"PUBLICZNA SZKO?A PODSTAWOWA NR 2 Z ODDZIA?AMI INTEGRACYJNYMI IM. MJP. HENRYKA SUCHARSKIEGO W PU?TUSKU","UL. POLNA","06-100","PU?TUSK","21.10934","52.691192","64.14999999999999","983.9250000000001","12.799999999999999","7.441666666666666","6.333333333333333","2023-11-03 09:00:00.0"
"LICEUM OG?LNOKSZTA?C?CE IM. J.M. OSSOLI?SKIEGO W BRZEGU DOLNYM","UL. WILCZA","56-120","BRZEG DOLNY","16.6980365","51.2690017","90.375","975.9666666666667","10.566666666666666","3.283333333333333","2.425","2023-11-03 09:00:00.0"
"SZKO?A PODSTAWOWA NR 1 IM. KR?LOWEJ JADWIGI W KONSTANTYNOWIE ??DZKIM","UL. ??DZKA","95-050","KONSTANTYN?W ??DZKI","19.354178","51.748192","80.40833333333333","970.3000000000001","10.958333333333334","6.325","6.583333333333333","2023-11-03 09:00:00.0"
"SZKO?A PODSTAWOWA NR 2 W WOLBROMIU","UL. POD LASEM","32-340","WOLBROM","19.7712922","50.3732498","71.425","944.0416666666666","11.299999999999999","2.5416666666666665","1.9749999999999999","2023-11-03 09:00:00.0"
"SZKO?A PODSTAWOWA IM. JANA PAW?A II W USTKOWIE","","98-290","USTK?W","18.600692","51.766123","80.075","975.4499999999999","12.233333333333334","8.341666666666667","6.341666666666666","2023-11-03 09:00:00.0"
"SZKO?A PODSTAWOWA IM. ?W. JANA BOSKOW KARCZYCACH","","55-311","KARCZYCE","16.7424417","51.102343","86.425","973.5416666666666","11.383333333333333","2.975","2.8166666666666664","2023-11-03 09:00:00.0"
"SZKO?A PODSTAWOWA NR 2 IM. TADEUSZA KO?CIUSZKI W PROCHOWICACH","UL. KO?CIUSZKI","59-230","PROCHOWICE","16.364947","51.280383","94.40833333333335","977.5","10.450000000000001","24.15833333333333","17.608333333333334","2023-11-03 09:00:00.0"
"PUBLICZNA SZKO?A PODSTAWOWA NR 5 IM. ENERGETYK?W W STALOWEJ WOLI","UL. ENERGETYK?W","37-450","STALOWA WOLA","22.0833578","50.5435751","86.08333333333333","978.0","10.141666666666666","11.783333333333333","9.625","2023-11-03 09:00:00.0"
"ZESP?? SZKOLNO-PRZEDSZKOLNY-SZKO?A PODSTAWOWA IM. MARSZA?KA J?ZEFA PI?SUDSKIEGO W ZAG?RZU","","32-005","ZAG?RZE","22.26707","49.5143","69.35000000000001","965.225","13.591666666666667","2.725","2.6416666666666666","2023-11-03 09:00:00.0"
"NIEPUBLICZNA NIEP?ATNA SZKO?A PODSTAWOWA STOWARZYSZENIA ""SI?DEMKA"" W TARNOWIE","UL. J?ZEFA PONIATOWSKIEGO","33-100","TARN?W","20.99013999756542","50.01871682796816 ","70.46666666666667","968.2416666666667","12.5","5.075","4.108333333333333","2023-11-03 09:00:00.0"
"SZKO?A PODSTAWOWA IM. ?W. STANIS?AWA KOSTKI W LGOCZANCE","","42-253","LGOCZANKA","19.538226","50.7040577","71.73333333333333","958.9833333333332","11.908333333333333","11.341666666666667","11.141666666666666","2023-11-03 09:00:00.0"
"TECHNIKUM IM. KSI?CIA BOLKA II W STRZEGOMIU","UL. KR?TKA","58-150","STRZEGOM","16.34410641","50.95893977","87.48333333333333","962.2166666666667","10.966666666666667","26.7","24.666666666666668","2023-11-03 09:00:00.0"
"SZKO?A PODSTAWOWA NR 3 IM. MARII D?BROWSKIEJ W RESZLU","UL. MARII KONOPNICKIEJ","11-440","RESZEL","21.1486175","54.052554","70.18333333333334","980.3333333333334","11.225","5.991666666666667","5.8999999999999995","2023-11-03 09:00:00.0"
"II OG?LNOKSZTA?C?CE LICEUM EKOLOGICZNE Z ODDZIA?AMI INTEGRACYJNYMI IM.UNII EUROPEJSKIEJ W ZESPOLE SZK?? EKOLOGICZNYCH W ZIELONEJ G?RZE","UL. FRANCUSKA","65-943","ZIELONA G?RA","15.5072986","51.9182105","85.97500000000001","970.8833333333333","9.975","11.416666666666666","9.308333333333334","2023-11-03 09:00:00.0"
"SZKO?A PODSTAWOWA W SOLCU-ZDROJU","UL. 1 MAJA","28-131","SOLEC-ZDR?J","20.8893586","50.37082674","71.53333333333333","972.8249999999999","12.216666666666667","3.033333333333333","3.025","2023-11-03 09:00:00.0"
"TECHNIKUM NR 1 IM. PROF. BOLES?AWA KRUPI?SKIEGO W LUBINIE","UL. TADEUSZA KO?CIUSZKI","59-300","LUBIN","16.208145","51.4014027","87.44166666666666","975.275","10.725","14.891666666666667","12.583333333333334","2023-11-03 09:00:00.0"
"SZKO?A PODSTAWOWA IM. ?W. MAKSYMILIANA MARII KOLBEGO W ZALASOWEJ","UL. KARPACKA","33-159","ZALASOWA","21.1412067","49.9305584","71.50833333333334","953.8166666666666","11.358333333333334","3.266666666666667","2.4583333333333335","2023-11-03 09:00:00.0"
"ZESP?? SZK?? GMINNYCH IM. HENRYKA SIENKIEWICZA W STANIS?AWICACH SZKO?A PODSTAWOWA W STANIS?AWICACH","","32-015","STANIS?AWICE","20.350192","49.982029","70.27499999999999","968.3083333333334","13.558333333333332","3.4333333333333336","2.7416666666666667","2023-11-03 09:00:00.0"
"SZKO?A PODSTAWOWA NR 6 IM. JANA PAW?A II W STAROGARDZIE GDA?SKIM","BP. DOMINIKA","83-250","STAROGARD GDA?SKI","18.491356","53.98333","90.3","977.9","11.300000000000002","7.466666666666666","4.246666666666667","2023-11-03 09:00:00.0"
"SZKO?A PODSTAWOWA W PRZE??KU","","48-303","PRZE??K","17.333027","50.4109082","92.825","963.7666666666668","10.775","5.216666666666666","4.383333333333333","2023-11-03 09:00:00.0"
"SZKO?A PODSTAWOWA IM.MARSZA?KA J?ZEFA PI?SUDSKIEGO W G?SKACH","","19-400","G?SKI","15.921626","54.236797","74.93333333333334","978.9499999999999","7.9750000000000005","7.766666666666667","8.033333333333333","2023-11-03 09:00:00.0"
"SZKO?A PODSTAWOWA NR 6 IM. KS. PIOTRA SKARGI W JAROS?AWIU","UL. SPYTKA","37-500","JAROS?AW","22.68186","50.01953","43.79999999999999","930.0","23.600000000000005","29.75","28.458333333333332","2023-11-03 09:00:00.0"
"SZKO?A PODSTAWOWA IM. MIKO?AJA KOPERNIKA W CIEKSYNIE","MARSZ. J?ZEFA PI?SUDSKIEGO","05-192","CIEKSYN","20.666605","52.572132","99.90000000000002","984.6999999999999","10.666666666666666","2.3000000000000003","1.2700000000000002","2023-11-03 09:00:00.0"
"SZKO?A PODSTAWOWA NR 94 W ?ODZI","UL. ZACISZE","90-228","??D?-?R?DMIE?CIE","19.47642378","51.77789288","81.36666666666666","965.2333333333332","11.375","5.183333333333334","5.708333333333333","2023-11-03 09:00:00.0"
"SZKO?A PODSTAWOWA NR 2 IM. KARD. K. WOJTY?Y W CZA?CU","UL. KARD. KAROLA WOJTY?Y","43-354","CZANIEC","19.26564","49.84730","66.26666666666667","949.4","16.466666666666665","5.016666666666667","4.533333333333333","2023-11-03 09:00:00.0"
"SZKO?A PODSTAWOWA NR 1 IM. JANA III SOBIESKIEGO W LIBI??U","UL. SZKOLNA","32-590","LIBI??","19.3286373","50.1013661","63.96666666666667","1004.7000000000002","9.6","5.175","4.333333333333333","2023-11-03 09:00:00.0"
"TECHNIKUM NR 4 W ZESPOLE SZK?? TECHNICZNYCH IM.M. SK?ODOWSKIEJ-CURIE W PU?AWACH","UL. WOJSKA POLSKIEGO","24-100","PU?AWY","21.97667461","51.41823622","65.4","979.2583333333333","11.933333333333332","8.191666666666666","7.05","2023-11-03 09:00:00.0"
"SZKO?A PODSTAWOWA IM. IGNACEGO SOLARZA W GACI","","37-207","GA?","22.373016099999994","50.02446508943701","76.16666666666667","972.3666666666667","8.933333333333334","19.625","16.258333333333333","2023-11-03 09:00:00.0"
"SZKO?A PODSTAWOWA NR 19 IM. KS. PIOTRA SKARGI W RZESZOWIE","UL. PIOTRA SKARGI","35-202","RZESZ?W","22.0102447","50.0455103","71.88333333333334","972.2833333333333","11.708333333333334","5.391666666666667","4.8500000000000005","2023-11-03 09:00:00.0"
"SZKO?A PODSTAWOWA IM. ADAMA MICKIEWICZA W P?GOWIE","UL. G??WNA","55-120","P?G?W","16.9325607","51.2463277","87.97500000000001","974.025","11.424999999999999","9.308333333333334","7.491666666666667","2023-11-03 09:00:00.0"
"SZKO?A PODSTAWOWA IM. PIERRE""A DE COUBERTINA W BUDACH SIENNICKICH","BUDY SIENNICKIE","05-190","BUDY SIENNICKIE","20.787657","52.544962","80.3","984.56","11.969999999999999","5.423333333333333","3.17","2023-11-03 09:00:00.0"
"III LICEUM OG?LNOKSZTA?C?CE W PABIANICACH","UL. GDA?SKA","95-200","PABIANICE","19.36155263","51.66500025","84.95","968.3916666666665","12.075000000000001","8.641666666666667","7.733333333333333","2023-11-03 09:00:00.0"
"TECHNIKUM NR 9 W TORUNIU","UL. STEFANA BATOREGO","87-100","TORU?","18.6208871","53.0272793","76.80833333333334","983.1166666666667","13.841666666666667","5.3500000000000005","4.091666666666666","2023-11-03 09:00:00.0"
"SZKO?A PODSTAWOWA IM. CZES?AWA HI?CAW ROGOZINIE","UL. MAZOWIECKA","09-442","ROGOZINO","19.8050343","52.5668522","82.25833333333334","976.9916666666667","10.125","7.4750000000000005","6.916666666666667","2023-11-03 09:00:00.0"
"SZKO?A PODSTAWOWA IM. ALEKSANDRA FREDRY W WICINIE","","68-320","WICINA","15.0782331","51.7674523","88.97500000000001","980.0500000000001","9.625","14.541666666666666","13.299999999999999","2023-11-03 09:00:00.0"
"SZKO?A PODSTAWOWA IM. KARDYNA?A STEFANA WYSZY?SKIEGO W KRYSPINOWIE","","32-060","KRYSPIN?W","19.80300","50.04611","52.71666666666667","930.0","11.833333333333334","1.5083333333333335","1.2333333333333334","2023-11-03 09:00:00.0"
"TECHNIKUM LE?NE W BIA?OWIE?Y","PARK DYREKCYJNY","17-230","BIA?OWIE?A","23.8739355","52.7021884","80.55454545454546","980.5272727272727","7.4363636363636365","14.909090909090908","14.563636363636363","2023-11-03 09:00:00.0"
"SZKO?A PODSTAWOWA IM. MARII KONOPNICKIEJ W KIE?KOWIE","KIE?K?W","39-320","PRZEC?AW","21.4761219652984","50.2329054713735","84.0","996.0","18.8","6.5","5.5","2023-11-03 09:00:00.0"
"PUBLICZNA SZKO?A PODSTAWOWA W DZIEWKOWICACH","STRZELECKA","47-100","DZIEWKOWICE","18.34475","50.51530","99.90000000000002","971.7166666666667","12.873333333333335","2.3766666666666665","1.3366666666666667","2023-11-03 09:00:00.0"
"IV LICEUM OG?LNOKSZTA?C?CE IM. MIKO?AJA REJA W ZABRZU","UL. GEN. W?ADYS?AWA ANDERSA","41-808","ZABRZE","18.795194","50.369265","70.21666666666667","956.7916666666666","14.133333333333333","15.341666666666667","13.008333333333333","2023-11-03 09:00:00.0"
"SZKO?A PODSTAWOWA IM. MARII KONOPNICKIEJ W JAWORZYNIE ?L?SKIEJ","UL. ADAMA MICKIEWICZA","58-140","JAWORZYNA ?L?SKA","16.43197400","50.91057600","86.69166666666666","962.3916666666668","11.375","5.183333333333334","4.141666666666667","2023-11-03 09:00:00.0"
"BRAN?OWA SZKO?A I STOPNIA SPECJALNA W RYBNIKU","UL. STANIS?AWA MA?ACHOWSKIEGO","44-251","RYBNIK","18.5866335","50.052555","70.60833333333333","955.3666666666667","14.225","2.7916666666666665","2.75","2023-11-03 09:00:00.0"
"SZKO?A PODSTAWOWA NR 2 IM. W?ADYS?AWA STANIS?AWA REYMONTA W MOR?GU","UL. ?EROMSKIEGO","14-300","MOR?G","19.9266354","53.9248797","72.45833333333333","977.0500000000001","10.508333333333333","12.299999999999999","10.316666666666666","2023-11-03 09:00:00.0"
"PUBLICZNA SZKO?A PODSTAWOWA W D?UGOWOLI","","27-300","D?UGOWOLA PIERWSZA","21.621011","51.096311","67.38333333333334","972.7583333333333","12.066666666666668","6.616666666666667","5.108333333333333","2023-11-03 09:00:00.0"
"SZKO?A PODSTAWOWA NR 3 IM. MARII KONOPNICKIEJ W CHOJNOWIE","UL. W?ADYS?AWA REYMONTA","59-225","CHOJN?W","15.92934","51.27254","88.13333333333333","970.975","9.85","30.09166666666667","23.924999999999997","2023-11-03 09:00:00.0"
"SZKO?A PODSTAWOWA IM. LANCKORO?SKICH W ZAKLICZYNIE","UL. JACKA MALCZEWSKIEGO","32-840","ZAKLICZYN","20.816176","49.855242","70.75","967.6666666666666","12.566666666666668","2.8833333333333333","2.5833333333333335","2023-11-03 09:00:00.0"
"SZKO?A PODSTAWOWA NR 3 IM. MIKO?AJA KOPERNIKA W GI?YCKU","WIEJSKA","11-500","GI?YCKO","21.76714","54.053436","92.03333333333335","957.3000000000001","13.700000000000001","8.24","4.343333333333334","2023-11-03 09:00:00.0"
"SZKO?A PODSTAWOWA NR 26 W RZESZOWIE","UL. JAROS?AWA D?BROWSKIEGO","35-036","RZESZ?W","21.980829","50.0223419","62.79090909090908","970.9","13.963636363636363","3.909090909090909","3.336363636363636","2023-11-03 09:00:00.0"
"ZESP?? SZKOLNO-PRZEDSZKOLNY W OCICACH","OCICE","59-730","OCICE","15.492642","51.201123","99.90000000000002","963.7666666666668","11.366666666666667","7.066666666666666","4.126666666666666","2023-11-03 09:00:00.0"
"SZKO?A PODSTAWOWA NR 9 IM. HENRYKA SIENKIEWICZA W RADOMSKU","UL. ROLNA","97-500","RADOMSKO","19.456889","51.066321","98.40000000000002","962.0749999999999","10.875","4.3999999999999995","4.808333333333333","2023-11-03 09:00:00.0"
"I LICEUM OG?LNOKSZTA?C?CE IM. ADAMA MICKIEWICZA W ?APACH","UL. BOHATER?W WESTERPLATTE","18-100","?APY","22.87657971","52.98984475","77.11666666666666","981.525","8.433333333333334","14.291666666666666","14.491666666666667","2023-11-03 09:00:00.0"
"I LICEUM OG?LNOKSZTA?C?CE IM. SEWERYNA GOSZCZY?SKIEGO W ZESPOLE SZK?? OG?LNOKSZTA?C?CYCH NR 1 W NOWYM TARGU","PL. ZYGMUNTA KRASI?SKIEGO","34-400","NOWY TARG","20.034732","49.4837969","79.16666666666667","1100.0","10.049999999999999","5.133333333333334","3.8249999999999997","2023-11-03 09:00:00.0"
"NIEPUBLICZNA SZKO?A PODSTAWOWA INTERNATIONAL ELEMENTARY SCHOOL W KAROLINOWIE","","09-142","KAROLINOWO","20.547247","52.5516469","96.22500000000001","978.7916666666666","10.283333333333333","3.3083333333333336","3.908333333333333","2023-11-03 09:00:00.0"
"SZKO?A PODSTAWOWA W BIEDRZYCHOWICACH","","48-250","BIEDRZYCHOWICE","17.938484","50.3371949","91.94166666666666","964.2833333333333","12.025","14.891666666666666","11.766666666666666","2023-11-03 09:00:00.0"
"TECHNIKUM NR 5 W WA?BRZYCHU","AL. WYZWOLENIA","58-300","WA?BRZYCH","16.2784203","50.770552","88.58333333333333","939.8583333333332","9.283333333333333","19.416666666666668","17.491666666666667","2023-11-03 09:00:00.0"
"SZKO?A PODSTAWOWA Z ODDZIA?AMI INTEGRACYJNYMI NR 148 IM. POLSKICH NOBLIST?W W KRAKOWIE","UL. ?ABIA","30-809","KRAK?W-PODG?RZE","19.9959686","50.0171518","70.73333333333333","964.9333333333334","13.458333333333334","4.6499999999999995","3.6916666666666664","2023-11-03 09:00:00.0"
"PUBLICZNA SZKO?A PODSTAWOWA NR 3 IM. MIKO?AJA KOPERNIKA W BRZESKU","UL. LEGION?W PI?SUDSKIEGO","32-800","BRZESKO","20.612038","49.97275","71.78333333333333","966.3166666666666","12.191666666666668","3.908333333333333","3.5500000000000003","2023-11-03 09:00:00.0"
"SZKO?APODSTAWOWA W LNI?NIE","","96-126","Lnisno","20.08905951","51.86229404","79.86666666666666","973.5833333333334","10.233333333333333","4.783333333333333","4.133333333333334","2023-11-03 09:00:00.0"
"SZKO?A PODSTAWOWA IM. ?W.KR?LOWEJ JADWIGI W JERZMANOWICACH","UL. SZKOLNA","32-048","JERZMANOWICE","19.7463992","50.2118918","72.80833333333334","940.6333333333333","11.041666666666666","4.116666666666666","4.341666666666667","2023-11-03 09:00:00.0"
"SZKO?A PODSTAWOWA W HUTKACH","","42-274","HUTKI","19.0062626","50.6813486","67.71666666666667","953.4583333333334","13.333333333333334","12.591666666666667","12.491666666666667","2023-11-03 09:00:00.0"
"SZKO?A PODSTAWOWA NR 19 W RYBNIKU","UL. W?O?CIA?SKA","44-251","RYBNIK","18.62631","50.05483","67.175","957.5749999999999","14.416666666666666","3.3249999999999997","2.733333333333333","2023-11-03 09:00:00.0"
"ZESP?? SZK?? IM. O. MARIANA ?ELAZKA W CHLUDOWIE FILIA W GOL?CZEWIE","UL. DWORCOWA","62-001","GO??CZOWO","16.81845","52.53466","86.59999999999998","1002.9","21.2","1.3","0.8000000000000002","2023-11-03 09:00:00.0"
"SZKO?A PODSTAWOWA NR 3 IM. BOHATER?W MONTE CASSINO W ZABRZU","UL. RTM. WITOLDA PILECKIEGO","41-800","ZABRZE","18.791714","50.296268","68.72500000000001","958.7166666666667","15.316666666666668","3.4416666666666664","2.6916666666666664","2023-11-03 09:00:00.0"
"PUBLICZNA SZKO?A PODSTAWOWA NR 2 IM. KAZIMIERZA PU?ASKIEGO W WARCE","POLNA","05-660","WARKA","21.188357","51.78638","99.90000000000002","978.5333333333333","13.633333333333333","5.833333333333333","3.106666666666667","2023-11-03 09:00:00.0"
"SZKO?A PODSTAWOWA IM. JANA MARKA W POG?RZU","UL. ZAMEK","43-430","Pog?rze","18.81904624","49.8012116","58.49166666666667","954.6333333333333","15.491666666666667","3.475","3.2583333333333333","2023-11-03 09:00:00.0"
"SZKO?A PODSTAWOWA IM. JANA KOCHANOWSKIEGO W B?CZARCE","","32-444","B?CZARKA","19.8615647","49.8750803","74.28333333333335","953.0083333333333","12.733333333333334","4.125","3.283333333333333","2023-11-03 09:00:00.0"
"SZKO?A PODSTAWOWA NR 1 IM. MARSZA?KA J?ZEFA PI?SUDSKIEGO W S?DZISZOWIE MA?OPOLSKIM","SZKOLNA","39-120","S?DZISZ?W MA?OPOLSKI","21.6763139406847","50.0193666321217","62.25454545454545","970.0","10.89090909090909","5.545454545454546","4.545454545454546","2023-11-03 09:00:00.0"
"ZESP?? PUBLICZNYCH PLAC?WEK O?WIATOWYCH IM. ODZYSKANIA NIEPODLEG?O?CI W STAREJ KORNICY","Stara Kornica","08-205","Stara Kornica","22.93439435","52.18366896","77.1","978.625","9.125","23.975","21.875","2023-11-03 09:00:00.0"
"SZKO?A PODSTAWOWA NR 2 IM. KARD. K. WOJTY?Y W CZA?CU","UL. KARD. KAROLA WOJTY?Y","43-354","CZANIEC","19.26564","49.84730","80.29333333333334","953.8733333333333","14.79","3.7266666666666666","2.0966666666666667","2023-11-03 09:00:00.0"
"SZKO?A PODSTAWOWA IM. MARII KONOPNICKIEJ W BUDACH G?OGOWSKICH","BUDY G?OGOWSKIE","36-060","BUDY G?OGOWSKIE","21.9052064322315","50.1600258408686","69.325","966.9166666666666","10.6","7.333333333333333","6.5","2023-11-03 09:00:00.0"
"SZKO?A PODSTAWOWA IM. ADAMA MICKIEWICZA W SOKO?ACH","UL. KO?CIELNA","18-218","Soko?y","22.69770204","52.99167725","73.5","979.2333333333332","9.1","16.158333333333335","15.375","2023-11-03 09:00:00.0"
"SZKO?A PODSTAWOWA W PTASZKOWIE","","58-400","PTASZK?W","16.0415642","50.7927672","88.76363636363637","937.5909090909091","8.336363636363636","6.3090909090909095","6.363636363636363","2023-11-03 09:00:00.0"
"SZKO?A PODSTAWOWA W SIEDLISKACH","SIEDLISKA","37-731","PRZEMY?L","22.8836889838114","49.7739137681101","69.625","970.0","9.283333333333333","17.75","13.333333333333334","2023-11-03 09:00:00.0"
"SZKO?A PODSTAWOWA W RO?WIENICY","","37-565","RO?WIENICA","22.5987701","49.9522037","81.51666666666667","970.5833333333334","8.174999999999999","29.900000000000002","26.358333333333334","2023-11-03 09:00:00.0"
"SZKO?A PODSTAWOWA NR 2 IM. ?W. TERESY OD DZIECI?TKA JEZUS W PODKOWIE LE?NEJ","UL. MODRZEWIOWA","05-807","PODKOWA LE?NA","20.72852","52.12099","78.18666666666667","978.4583333333334","13.881666666666666","1.3083333333333333","1.8333333333333333","2023-11-03 09:00:00.0"
"SZKO?A PODSTAWOWA NR 25 IM. PRYMASA TYSI?CLECIA W RZESZOWIE","STARZY?SKIEGO","35-508","RZESZ?W","21.9830913377866","50.0603946195528","68.29166666666667","969.0","10.616666666666667","5.333333333333333","4.333333333333333","2023-11-03 09:00:00.0"
"ZESP?? SZK?? NR 1 W PSZCZYNIE","UL. KAZIMIERZA WIELKIEGO","43-200","PSZCZYNA","18.9457058","49.965883","99.90000000000002","966.7333333333332","14.866666666666667","4.333333333333333","2.453333333333333","2023-11-03 09:00:00.0"
"SZKO?A PODSTAWOWA NR 3, IM. JANA PAW?A II W KASINCE MA?EJ","","34-734","KASINKA MA?A","20.0902484","49.7296904","45.30833333333334","938.4583333333334","18.150000000000002","2.441666666666667","2.3000000000000003","2023-11-03 09:00:00.0"
"SZKO?A PODSTAWOWA NR 5 W CZELADZI","UL. LWOWSKA","41-253","CZELAD?","19.092371","50.3074791","71.53333333333333","955.9083333333333","13.783333333333333","5.108333333333333","5.241666666666666","2023-11-03 09:00:00.0"
"PUBLICZNA SZKO?A PODSTAWOWA W BACH?RCU","BACH?RZEC","37-750","BACH?RZEC","22.334908846237","49.82477572297","76.71666666666667","966.0","9.674999999999999","8.833333333333334","7.166666666666667","2023-11-03 09:00:00.0"
"SZKO?A PODSTAWOWA W KR?LEWIE","","09-131","KR?LEWO","20.5648353","52.6353613","83.78333333333333","980.4333333333334","9.458333333333334","4.441666666666666","3.641666666666667","2023-11-03 09:00:00.0"
"SZKO?A PODSTAWOWA W CZARNYMLESIE","","63-421","CZARNYLAS","17.762604","51.508366","99.90000000000002","969.4333333333334","11.700000000000001","24.53333333333333","14.133333333333333","2023-11-03 09:00:00.0"
"SZKO?A PODSTAWOWA NR 5 IM. POLSKICH NOBLIST?W W ?REMIE","UL. DEZYDEREGO CH?APOWSKIEGO","63-100","?REM","17.01311","52.079641","44.4","1019.4","29.8","1.3999999999999997","0.75","2023-11-03 09:00:00.0"
"SZKO?A PODSTAWOWA IM. JANA PAW?A II W LUBATOWEJ","","38-440","LUBATOWA","21.76125","49.5404048","67.15454545454546","948.0272727272727","12.454545454545455","2.1545454545454543","1.7","2023-11-03 09:00:00.0"
"SZKO?A PODSTAWOWA IM. MARKA PRAWEGO W JEMIELNICY","SZKOLNA","47-133","JEMIELNICA","18.380122","50.548993","99.90000000000002","965.9666666666667","12.466666666666667","1.0","0.5066666666666667","2023-11-03 09:00:00.0"
"SZKO?A PODSTAWOWA IM. WOJSKA POLSKIEGO W WIEWI?RCZYNIE","UL. SZKOLNA","98-100","WIEWI?RCZYN","19.161207571164812","51.59139253847756","80.56666666666666","970.2833333333333","11.725","10.708333333333334","11.375","2023-11-03 09:00:00.0"
"ZESP?? SZKOLNO-PRZEDSZKOLNY W KRA?NIKU DOLNYM","KRA?NIK DOLNY","59-700","KRA?NIK DOLNY","15.607869","51.307800","93.66000000000001","978.7966666666666","13.103333333333333","10.61","5.6066666666666665","2023-11-03 09:00:00.0"
"SZKO?A PODSTAWOWA IM. MARII KONOPNICKIEJ W UJE?D?CU WIELKIM","","55-100","UJE?DZIEC WIELKI","17.092104","51.415639","90.06363636363636","977.5272727272727","11.509090909090908","11.345454545454546","11.454545454545455","2023-11-03 09:00:00.0"
"SZKO?A PODSTAWOWA NR 6 IM. MARII CURIE-SK?ODOWSKIEJ W ZABRZU","UL. KLONOWA","41-800","ZABRZE","18.8800148","50.3207572","67.35000000000001","958.5166666666668","14.883333333333333","2.533333333333333","2.0416666666666665","2023-11-03 09:00:00.0"
"SZKO?A PODSTAWOWA NR 6 IM. KORNELA MAKUSZY?SKIEGO W CZARKOWIE","POWSTA?C?W ?L?SKICH","43-211","CZARK?W","18.909560","50.011713","81.69","954.7733333333334","14.530000000000001","4.81","2.7399999999999998","2023-11-03 09:00:00.0"
"LICEUM OG?LNOKSZTA?C?CE KADET?W REZWCZYPOSPOLITEJ POLSKIEJ W LIPINACH","","26-425","LIPINY","20.511418","51.54591","77.575","973.225","10.575000000000001","8.075000000000001","7.183333333333334","2023-11-03 09:00:00.0"
"SZKO?A PODSTAWOWA NR 2 IM. JANA PAW?A II W POR?BIE","UL. WIEDZY","42-480","POR?BA","19.361528","50.489263","74.09166666666667","952.4166666666666","12.591666666666667","2.6416666666666666","2.3249999999999997","2023-11-03 09:00:00.0"
"SZKO?A PODSTAWOWA W STRZELECZKACH","UL. SIENKIEWICZA","47-364","STRZELECZKI","17.8541788","50.4590123","89.55","968.9833333333332","12.391666666666666","4.616666666666666","3.9250000000000003","2023-11-03 09:00:00.0"
"SZKO?A PODSTAWOWA IM.JANA PAW?A II W DOBKOWICACH","","37-554","DOBKOWICE","22.706004268724662","49.92367017702528 ","75.85000000000001","972.1500000000001","8.408333333333333","15.666666666666666","15.924999999999999","2023-11-03 09:00:00.0"
"SZKO?A PODSTAWOWA NR 2 IM. STEFANA ?EROMSKIEGO W BRENNEJ","UL. BUKOWA","43-438","BRENNA","18.9436714","49.7184394","70.35833333333333","938.5083333333333","14.116666666666667","3.2583333333333333","2.983333333333333","2023-11-03 09:00:00.0"
"SZKO?A PODSTAWOWA IM. KAROLA MARCINKOWSKIEGO W LUDOMACH","","64-603","LUDOMY","16.8230475","52.7545231","92.45","980.3833333333333","11.433333333333332","3.0749999999999997","2.9499999999999997","2023-11-03 09:00:00.0"
"II LICEUM OG?LNOKSZTA?C?CE IM. ROMUALDA TRAUGUTTA W CZ?STOCHOWIE","UL. JANA KILI?SKIEGO","42-218","CZ?STOCHOWA","19.1146093","50.8186865","73.34166666666667","960.9416666666666","13.299999999999999","15.166666666666666","13.933333333333332","2023-11-03 09:00:00.0"
"LICEUM OG?LNOKSZTA?C?CE Z ODDZIA?AMI INTEGRACYJNYMI NR XXX WE WROC?AWIU","UL. NOWODWORSKA","54-438","WROC?AW-FABRYCZNA","16.9556769","51.1153119","87.46363636363637","975.3272727272728","11.445454545454545","5.254545454545454","5.463636363636364","2023-11-03 09:00:00.0"
"SZKO?A PODSTAWOWA NR 2 IM. KONSTYTUCJI 3-GO MAJA W M?CINIE","","34-654","M?CINA","20.5404381","49.7016283","72.07000000000001","937.2700000000001","10.809999999999999","3.04","3.08","2023-11-03 09:00:00.0"
"TECHNIKUM NR 3 W OSTRO??CE","UL. STEFANA JARACZA","07-410","OSTRO??KA","21.567307","53.073999","68.31666666666668","984.1416666666668","10.966666666666667","9.266666666666667","7.258333333333333","2023-11-03 09:00:00.0"
"SZKO?A PODSTAWOWA IM.STULECIA ODZYSKANIA NIEPODLEG?O?CI POLSKI W MINODZE","","32-043","MINOGA","19.9006661","50.2420125","80.21666666666667","953.1833333333334","10.275","4.516666666666667","4.358333333333333","2023-11-03 09:00:00.0"
"SZKO?A PODSTAWOWA W W?GRACH","UL. SZKOLNA","55-020","W?GRY","17.0374566","50.92746209","84.93333333333334","972.875","11.833333333333334","14.533333333333333","10.116666666666665","2023-11-03 09:00:00.0"
"SZKO?A PODSTAWOWA IM. JANA PAW?A II W MIKORZYNIE","MIKORZYN","63-600","MIKORZYN","18.026148","51.36473","87.51666666666667","974.5966666666667","12.973333333333334","21.39","12.270000000000001","2023-11-03 09:00:00.0"
"SZKO?A PODSTAWOWA NR 8 IM. MARII D?BROWSKIEJ W GLIWICACH","UL. SPACEROWA","44-141","GLIWICE","18.6801748","50.2506534183101","67.81","957.8700000000001","14.86","2.2399999999999998","2.15","2023-11-03 09:00:00.0"
"SZKO?A PODSTAWOWA NR 2 IM HENRYKA SIENKIEWICZA W PRZYSZOWEJ","","34-604","PRZYSZOWA","20.4806341","49.6603381","71.74166666666666","936.9250000000001","11.391666666666666","3.8000000000000003","3.775","2023-11-03 09:00:00.0"
"PUBLICZNA SZKO?A PODSTAWOWA NR 1 Z ODDZIA?AMI INTEGRACYJNYMI IM.JANA III SOBIESKIEGO W SZYD?OWCU","UL. WSCHODNIA","26-500","SZYD?OWIEC","20.86302643","51.22382244","71.89166666666667","966.1166666666667","10.916666666666666","4.5","4.366666666666666","2023-11-03 09:00:00.0"
"SZKO?A PODSTAWOWA IM. KS. J?ZEFA LONDZINA W ZABRZEGU","KAROLA PYTLA","43-516","ZABRZEG","18.9401","49.91564","81.04333333333334","961.5833333333334","15.106666666666667","2.9600000000000004","1.6966666666666665","2023-11-03 09:00:00.0"
"SZKO?A PODSTAWOWA NR 1 Z ODDZIA?AMI INTEGRACYJNYMI W RACIBORZU","UL. CECYLII","47-400","RACIB?RZ","18.2321525","50.0999982","88.43333333333334","967.0833333333334","14.508333333333333","8.708333333333334","7.991666666666667","2023-11-03 09:00:00.0"
"SZKO?A PODSTAWOWA SPORTOWA NR 6 W E?KU","SUWALSKA","19-300","E?K","22.365547","53.82862","96.74333333333334","981.4066666666666","9.596666666666666","10.353333333333333","5.896666666666666","2023-11-03 09:00:00.0"
"SZKO?A PODSTAWOWA IM. J?ZEFA GORLACHA W RUDZIE","","39-310","Ruda","21.34772564","50.20129096","53.9","972.64","14.86","3.34","2.56","2023-11-03 09:00:00.0"
"SZKO?A PODSTAWOWA NR 25 IM.MJRA HENRYKA SUCHARSKIEGO W ZESPOLE EDUKACYJNYM NR 5 W ZIELONEJ G?RZE","UL. OCHLA-SZKOLNA","66-006","ZIELONA G?RA","15.473795","51.878656","87.24166666666667","979.7833333333333","10.475","21.45","23.583333333333332","2023-11-03 09:00:00.0"
"PUBLICZNA SZKO?A PODSTAWOWA IM. JANA OLRYCHA SZANIECKIEGO W SZA?CU","","28-100","SZANIEC"," 20.691985097588677","50.51627384074623","63.75","963.375","12.558333333333332","2.9416666666666664","2.6916666666666664","2023-11-03 09:00:00.0"
"SZKO?A PODSTAWOWA NR 1 IM. MIKO?AJA KOPERNIKA W MILICZU","UL. ARMII KRAJOWEJ","56-300","MILICZ","17.27622","51.52735","97.375","976.7916666666666","11.083333333333334","20.7","18.925","2023-11-03 09:00:00.0"
"SZKO?A PODSTAWOWA W ZBOROWIE","UL. ZWIERZYNIEC","28-131","ZBOR?W","20.711351","50.51339044","71.45833333333333","969.6999999999999","11.966666666666667","3.266666666666667","3.5833333333333335","2023-11-03 09:00:00.0"
"SZKO?A PODSTAWOWA NR 4 IM. JANUSZA KORCZAKA W CHOJNOWIE","JANA KILI?SKIEGO","59-225","CHOJN?W","15.9396","51.26856","99.90000000000002","971.0333333333333","10.133333333333333","0.0","0.0","2023-11-03 09:00:00.0"
"SZKO?A PODSTAWOWA W KRZYWEJ","S?DZISZ?W MA?OPOLSKI, KRZYWA","39-120","KRZYWA","21.7418727285244","50.0936803038129","71.18333333333334","967.0","10.725","3.75","2.9166666666666665","2023-11-03 09:00:00.0"
"SZKO?A PODSTAWOWA IM. WOJSKA POLSKIEGO W L?DKU","PYZDERSKA","62-406","L?DEK","17.924826","52.20916","99.90000000000002","979.1666666666666","12.333333333333334","32.56666666666667","17.75","2023-11-03 09:00:00.0"
"I LICEUM OG?LNOKSZTA?C?CE W NOWEJ SARZYNIE","UL. KOMISJI EDUKACJI NARODOWEJ","37-310","NOWA SARZYNA","22.34167945","50.31921557","74.2090909090909","975.4454545454545","8.945454545454545","15.47272727272727","16.209090909090907","2023-11-03 09:00:00.0"
"SZKO?A PODSTAWOWA IM.?W. JANA DE LA SALLE W CZ?STOCHOWIE","UL. GEN. KAZIMIERZA PU?ASKIEGO","42-217","CZ?STOCHOWA","19.1029461","50.8039173","67.0","958.9916666666667","13.125","7.325","6.316666666666666","2023-11-03 09:00:00.0"
"SZKO?A PODSTAWOWA NR 157 IM. IGNACEGO JANA PADEREWSKIEGO W KRAKOWIE","UL. LUDWIKA RYDYGIERA","30-695","KRAK?W-PODG?RZE","20.00607","50.006338","61.15","963.6999999999999","15.591666666666667","3.125","2.766666666666667","2023-11-03 09:00:00.0"
"SZKO?A PODSTAWOWA NR 1 IM. STEFANA ?EROMSKIEGO W ?UROMINIE","UL. WYZWOLENIA","09-300","?UROMIN","19.911175","53.071036","84.58333333333333","974.9","10.358333333333333","22.59166666666667","19.533333333333335","2023-11-03 09:00:00.0"
"SZKO?A PODSTAWOWA IM. KSI?DZA KARDYNA?A STEFANA WYSZY?SKIEGO W G?OGOWIE MA?OPOLSKIM","KARDYNA?A STEFANA WYSZY?SKIEGO","36-060","G?OG?W MA?OPOLSKI","21.9586176292902","50.1529459443629","28.2","991.0","24.2","4.0","3.0","2023-11-03 09:00:00.0"
"SZKO?A PODSTAWOWA NR 2 IM. JANA PAW?A II W ?WIERADOWIE-ZDROJU","UL. SANATORYJNA","59-850","?WIERAD?W-ZDR?J","15.3071925","50.9269757","88.29166666666667","933.35","8.15","2.9499999999999997","2.3583333333333334","2023-11-03 09:00:00.0"
"SZKO?A PODSTAWOWA NR 1 IM. MIKO?AJA KOPERNIKA W MILICZU","UL. ARMII KRAJOWEJ","56-300","MILICZ","17.27622","51.52735","87.98333333333333","976.8266666666667","12.316666666666668","12.06","7.223333333333334","2023-11-03 09:00:00.0"
"TECHNIKUM NR 1 W CIESZYNIE","UL. IGNACEGO KRASZEWSKIEGO","43-400","CIESZYN","18.6328005","49.7409317","71.77272727272727","953.3272727272728","14.927272727272726","2.090909090909091","2.0272727272727273","2023-11-03 09:00:00.0"
"PRYWATNA SZKO?A PODSTAWOWA W PISZU","UL. ADAMA MICKIEWICZA","12-200","PISZ","21.794366","53.629361","72.3","982.1916666666666","10.191666666666666","8.566666666666666","5.7","2023-11-03 09:00:00.0"
"SZKO?A PODSTAWOWA IM. KS.JANA TWARDOWSKIEGO W SIENNEJ","UL. ?WI?TEJ JADWIGI ?L?SKIEJ","34-300","SIENNA","19.1480477","49.6766991","69.54166666666667","943.3416666666667","14.908333333333333","3.1916666666666664","2.5416666666666665","2023-11-03 09:00:00.0"
"BRAN?OWA SZKO?A I STOPNIA NR 2 W GORLICACH","UL. J?ZEFA MICHALUSA","38-300","GORLICE","21.173963","49.66959","69.52499999999999","962.4083333333333","12.174999999999999","2.8666666666666667","3.1","2023-11-03 09:00:00.0"
"PUBLICZNA SZKO?A PODSTAWOWA IM. MIKO?AJA KOPERNIKA W BIENI?DZICACH","","26-625","BIENI?DZICE","20.92852467","51.41165831","70.7","972.1833333333334","12.633333333333333","6.783333333333334","5.808333333333334","2023-11-03 09:00:00.0"
"SZKO?A PODSTAWOWA IM. MARII SK?ODOWSKIEJ-CURIE W NOWEJ SARZYNIE","UL. KOMISJI EDUKACJI NARODOWEJ","37-310","NOWA SARZYNA","22.3446","50.32035","71.0","975.625","9.216666666666667","8.458333333333334","7.383333333333333","2023-11-03 09:00:00.0"
"ZESP?? SZKOLNO-PRZEDSZKOLNY W TRZEBIENIU","LE?NA","59-700","TRZEBIE?","15.599295","51.390285","91.30333333333333","980.8733333333333","12.636666666666665","21.596666666666664","13.266666666666666","2023-11-03 09:00:00.0"
"ZESP?? SZK?? TECHNICZNYCH W KOLE","KOLEJOWA","62-600","KO?O","18.62956","52.2088","85.96333333333332","973.0266666666666","12.726666666666667","17.13","10.270000000000001","2023-11-03 09:00:00.0"
"SZKO?A PODSTAWOWA IM. W?ADYS?AWA SZAFERA W WOLI KALINOWSKIEJ","UL. SZKOLNA","32-045","Wola Kalinowska","19.80972735","50.22489696","76.56666666666666","939.0500000000001","10.533333333333333","4.433333333333333","3.6666666666666665","2023-11-03 09:00:00.0"
"SZKO?A PODSTAWOWA IM. JANA PAW?A II W D?BIU","UL. 3 MAJA","62-660","D?BIE","18.8198211","52.0891079","82.39166666666667","977.7416666666667","11.883333333333333","11.991666666666667","10.666666666666666","2023-11-03 09:00:00.0"
"SZKO?A PODSTAWOWA IM. JANA PAW?A II W ADAM?WCE","ADAM?WKA","37-534","ADAM?WKA","22.69604291689","50.2583834457348","73.14999999999999","972.25","8.966666666666667","2.0","2.0","2023-11-03 09:00:00.0"
"PUBLICZNA SZKOLA PODSTAWOWA IM. BOHATEROW O?WI?CIMSKICH W RUDZICZCE","WOSZCZYCKA","43-267","RUDZICZKA (SUSZEC)","18.7549","50.03935","83.49","955.9966666666666","14.533333333333333","4.773333333333333","2.7099999999999995","2023-11-03 09:00:00.0"
"SZKO?A PODSTAWOWA W WITOSZYCACH","","56-200","WITOSZYCE","16.5154353","51.7433015","88.04166666666667","976.6166666666667","11.358333333333334","12.066666666666668","10.924999999999999","2023-11-03 09:00:00.0"
"SZKO?A PODSTAWOWA IM. HELENY MARUSARZ?WNY W Z?BIE","UL. ?W. ANNY","34-521","Z?B","19.9474975","49.3379768","82.16666666666667","950.35","8.391666666666667","4.083333333333333","3.775","2023-11-03 09:00:00.0"
"SZKO?A PODSTAWOWA W SILNIE","UL. G??WNA","89-620","SILNO","17.6993","53.65103","85.15833333333333","974.2416666666667","11.491666666666667","7.266666666666667","5.4750000000000005","2023-11-03 09:00:00.0"
"SZKO?A PODSTAWOWA W NOWYM KUROWIE","","66-540","Nowe Kurowo","15.71902252","52.85481259","94.08333333333333","984.875","10.608333333333333","39.80833333333333","33.24166666666667","2023-11-03 09:00:00.0"
"SZKO?A PODSTAWOWA IM. KRZYSZTOFA KAMILA BACZY?SKIEGO W CI??ENIU","WOLNO?CI","62-404","CI??E?","17.816093","52.21152","5.0","977.3333333333334","12.533333333333333","11.466666666666667","6.033333333333334","2023-11-03 09:00:00.0"
"II LICEUM OG?LNOKSZTA?C?CE IM. TADEUSZA STANIEWSKIEGO W SWARZ?DZU","UL. PODG?RNA","62-020","SWARZ?DZ","17.073424184659224","52.41061520852974","91.425","979.05","11.149999999999999","25.275","23.400000000000002","2023-11-03 09:00:00.0"
"SZKO?A PODSTAWOWA W KL?CZANACH","B?DZIEMY?L, KLECZANY","39-127","KL?CZANY","21.7805870168847","50.0725485846066","69.65833333333333","968.0","10.016666666666667","4.333333333333333","3.6666666666666665","2023-11-03 09:00:00.0"
"SZKO?A PODSTAWOWA IM. ?W. WOJCIECHA WE W?ODOWICACH","","57-400","W?ODOWICE","16.4776033","50.575772","84.16666666666667","946.8666666666667","10.166666666666666","18.0","17.400000000000002","2023-11-03 09:00:00.0"
"SZKO?A PODSTAWOWA NR 5 IM. MARII KONOPNICKIEJ W S?DZISZOWIE MA?OPOLSKIM","KAW?CZYN","39-120","S?DZISZ?W MA?OPOLSKI","21.7382594271947","50.0791771095642","58.61666666666667","968.0833333333334","15.108333333333333","5.333333333333333","4.416666666666667","2023-11-03 09:00:00.0"
"SZKO?A PODSTAWOWA W GNIECHOWICACH","UL. SZKOLNA","55-080","GNIECHOWICE","16.832592","50.990853","86.66666666666667","972.6416666666668","11.833333333333334","11.891666666666667","10.049999999999999","2023-11-03 09:00:00.0"
"AKADEMICKI ZESP?? PLAC?WEK O?WIATOWYCH SZKO?A PODSTAWOWA W FIJEWIE","","14-260","FIJEWO","19.7542438","53.4991344","80.02499999999999","971.1416666666668","10.025","5.108333333333333","4.816666666666666","2023-11-03 09:00:00.0"
"I KATOLICKIE SPO?ECZNE LICEUM OG?LNOKSZTA?CACE IM.?W.BRATA ALBERTA CHMIELOWSKIEGO W PU?AWACH","UL. STANIS?AWA EUSTACHIEWICZA","24-100","PU?AWY","21.95614207","51.41935824","67.425","981.0","11.933333333333332","8.158333333333333","6.466666666666666","2023-11-03 09:00:00.0"
"SZKO?A PODSTAWOWA NR 8 IM. J?ZEFA WESZKI W RUDO?TOWICACH","KRZYWO?","43-220","RUDO?TOWICE","19.00171","49.95711","71.26666666666667","961.9","15.0","2.6","1.6333333333333335","2023-11-03 09:00:00.0"
"SZKO?A PODSTAWOWA IM. LUDWIKA KUPCZYKA W SEREDZICACH","","27-100","SEREDZICE","21.18481407","51.15171865","70.125","972.025","11.833333333333334","7.633333333333333","6.8999999999999995","2023-11-03 09:00:00.0"
"TECHNIKUM NR 1 W GLIWICACH","UL. CHORZOWSKA","44-100","GLIWICE","18.69488447","50.298553","69.38333333333334","961.9916666666667","15.450000000000001","5.7749999999999995","5.2250000000000005","2023-11-03 09:00:00.0"
"SZKO?A PODSTAWOWA NR 5 W WI?LE","UL. JAWORNIK","43-460","WIS?A","18.8272309","49.657376","62.44166666666666","936.9","14.408333333333333","4.683333333333334","3.75","2023-11-03 09:00:00.0"
"SZKO?A PODSTAWOWA W WIADROWIE","","59-411","WIADR?W","16.177058","50.978719","87.01818181818182","963.0636363636364","10.372727272727273","2.6636363636363636","1.981818181818182","2023-11-03 09:00:00.0"
"SZKO?A PODSTAWOWA NR 10 Z ODDZIA?AMI SPORTOWYMI W BIELAWIE","UL. GEN. GROTA ROWECKIEGO","58-260","BIELAWA","16.61694446","50.68265975","84.14999999999999","952.1666666666666","10.283333333333333","5.875","5.6499999999999995","2023-11-03 09:00:00.0"
"SZKO?A PODSTAWOWA IM. JANA PAW?A II W STRASZYDLU","STRASZYDLE","36-043","STRASZYDLE","21.9835224420105","49.8988952858278","59.9","964.0","11.916666666666666","5.166666666666667","5.0","2023-11-03 09:00:00.0"
"PUBLICZNA SZKO?A PODSTAWOWA IM.GEN.MARCINA K?TSKIEGO W K?TACH","","32-862","K?TY","20.601274","49.78725","70.35833333333333","960.6750000000001","12.841666666666667","33.40833333333333","30.21666666666667","2023-11-03 09:00:00.0"
"SZKO?A PODSTAWOWA NR 4 IM. KORNELA MAKUSZY?SKIEGO W BIA?EJ PODLASKIEJ","UL. STANIS?AWA MONIUSZKI","21-500","BIA?A PODLASKA","23.1240646","52.03658476","78.05","981.6166666666667","9.058333333333334","13.508333333333333","11.383333333333333","2023-11-03 09:00:00.0"
"SZKO?A PODSTAWOWA IM. EDWARDA SZYMA?SKIEGO W STOCZKU","UL. W?GROWSKA","07-104","STOCZEK","21.9001015","52.5429093","63.26666666666667","979.9416666666666","11.991666666666667","9.966666666666667","10.733333333333334","2023-11-03 09:00:00.0"
"SZKO?A PODSTAWOWA IM.STEFANA CZARNIECKIEGO W RAC?AWICACH","","38-323","RAC?AWICE","21.127689745801828","50.06979323518478","70.59166666666665","960.65","11.916666666666666","5.75","4.683333333333333","2023-11-03 09:00:00.0"
"SZKO?A PODSTAWOWA IMIENIA KOMISJI EDUKACJI NARODOWEJ W SU?KOWICACH- ??GU","UL. CENTRALNA","34-120","SU?KOWICE","19.3430192","49.8345846","57.63333333333333","946.25","17.208333333333332","2.725","2.658333333333333","2023-11-03 09:00:00.0"
"SZKO?A PODSTAWOWA NR 3 IM. JANA PAW?A II W ROPCZYCACH","3 MAJA","39-100","ROPCZYCE","21.5832672438671","50.0389694490123","55.28888888888889","968.2222222222222","14.18888888888889","3.0","2.7777777777777777","2023-11-03 09:00:00.0"
"SZKO?A PODSTAWOWA IM. KR?LA JANA III SOBIESKIEGO W KA?CZUDZE","UL. SZKOLNA","37-220","KA?CZUGA","22.4116071","49.9833529","71.42222222222222","972.1555555555556","10.711111111111112","13.455555555555556","12.566666666666666","2023-11-03 09:00:00.0"
"ZESP?? SZKOLNO-PRZEDSZKOLNY W GODOWIE","UL. SZKOLNA","44-340","GOD?W","18.48504","49.91916","96.825","1093.1","-40.0","4.8375","4.775","2023-11-03 09:00:00.0"
"SZKO?A PODSTAWOWA NR 50 IM. W?ODZIMIERZA TETMAJERA W KRAKOWIE","UL. KATOWICKA","31-351","KRAK?W-KROWODRZA","19.88192366","50.08454303","67.49166666666666","964.4166666666666","13.0","5.591666666666666","5.025","2023-11-03 09:00:00.0"
"LICEUM OG?LNOKSZTA?C?CE IM. CYPRIANA KAMILA NORWIDA W MO?KACH","UL. TYSI?CLECIA","19-100","MO?KI","22.804277","53.404480516","69.54166666666667","977.725","9.133333333333333","15.541666666666666","14.533333333333333","2023-11-03 09:00:00.0"
"SZKO?A PODSTAWOWA W ?CINAWIE POLSKIEJ","","55-200","?CINAWA POLSKA","17.33660972","50.93346737","86.93333333333334","973.5500000000001","11.475","4.45","4.325","2023-11-03 09:00:00.0"
"SZKO?A PODSTAWOWA IM.KRZYSZTOFA KAMILA BACZY?SKIEGO W LIPOWEJ","UL. JANA PAW?A II","34-324","LIPOWA","19.0737787","49.6985065","69.88333333333334","935.3583333333332","14.1","2.308333333333333","2.441666666666667","2023-11-03 09:00:00.0"
"SZKO?A PODSTAWOWA NR 1 IM. ?W. KR?LOWEJ JADWIGI W JAROS?AWIU","UL. 3 MAJA","37-500","JAROS?AW","22.6634426","50.0049586","77.875","973.4083333333333","8.525","17.75","17.216666666666665","2023-11-03 09:00:00.0"
"SZKO?A PODSTAWOWA NR 10 Z ODDZIA?AMI INTEGRACYJNYMI IM. WALERIANA ?UKASI?SKIEGO W ZAMO?CIU","UL. PEOWIAK?W","22-400","ZAMO??","23.256959617892495","50.72103172968299 ","79.86666666666666","973.4666666666667","8.983333333333333","18.433333333333334","17.5","2023-11-03 09:00:00.0"
"SZKO?A PODSTAWOWA IM.STANIS?AWA D?MBSKIEGO W RUDNEJ WIELKIEJ","","36-054","RUDNA WIELKA","21.954377626405005","50.08747932340838 ","71.175","970.4416666666666","11.816666666666668","2.325","1.875","2023-11-03 09:00:00.0"
"SZKO?A PODSTAWOWA IM. KR?LOWEJ JADWIGI W WYSOKIEM","","34-600","WYSOKIE","20.5394861","49.6552386","78.29166666666667","1100.0","9.883333333333333","9.691666666666666","6.908333333333334","2023-11-03 09:00:00.0"
"SZKO?A PODSTAWOWA SPECJALNA W GR?JCU SZKO?A FILIALNA W NOWEJ WSI","","05-660","NOWA WIE?","22.0359008","50.1007956","67.08333333333333","977.5666666666666","12.583333333333334","2.9333333333333336","2.308333333333333","2023-11-03 09:00:00.0"
"PUBLICZNA SZKO?A PODSTAWOWA  IM. KORNELA MAKUSZY?SKIEGO WE WRZESZCZOWIE","","26-650","WRZESZCZ?W","20.827514","51.4984472","74.36666666666667","973.2666666666668","11.758333333333333","4.066666666666666","3.266666666666667","2023-11-03 09:00:00.0"
"SZKO?A PODSTAWOWA IM. ?W. STANIS?AWA KOSTKI W NOWEJ WSI SZLACHECKIEJ","UL. SZKOLNA","32-060","NOWA WIE? SZLACHECKA","19.6970908","50.026212","70.75555555555555","961.0444444444444","12.61111111111111","71.27777777777777","67.37777777777778","2023-11-03 09:00:00.0"
"SZKO?A PODSTAWOWA NR 41 IM. W?ADYS?AWA BRONIEWSKIEGO W GLIWICACH","UL. KORMORAN?W","44-100","GLIWICE","18.6561","50.274791","68.58333333333333","960.7166666666667","15.6","1.75","1.6916666666666667","2023-11-03 09:00:00.0"
"SZKO?A PODSTAWOWA IM. KONSTYTUCJI 3 MAJA W JA?WI?ACH","","19-124","JA?WI?Y","22.9430109","53.477615","76.47777777777777","977.9888888888888","8.011111111111111","6.444444444444445","6.133333333333334","2023-11-03 09:00:00.0"
"SZKO?A PODSTAWOWA W DOBRZYNI?WCE","","16-060","DOBRZYNI?WKA","23.369189400000003","53.04422087901619","82.875","978.2083333333334","8.008333333333333","17.175","17.325","2023-11-03 09:00:00.0"
"SZKO?A PODSTAWOWA NR 2 IM. STEFANA STARZY?SKIEGO W NASIELSKU","KO?CIUSZKI","05-190","NASIELSK","20.801001","52.589717","99.90000000000002","979.8666666666667","11.9","6.3","3.47","2023-11-03 09:00:00.0"
"SZKO?A PODSTAWOWA NR 1 IM. MIKO?AJA KOPERNIKA W W?GORZEWIE","UL. PIONIER?W","11-600","W?GORZEWO","21.7379192","54.2136049","66.02499999999999","980.4333333333334","11.491666666666667","11.025","9.891666666666667","2023-11-03 09:00:00.0"
"SZKO?A PODSTAWOWA NR 1 W ZABRZU","UL. SPORTOWA","41-800","ZABRZE","18.78930","50.28601","70.15833333333333","958.8416666666667","16.566666666666666","4.125","4.75","2023-11-03 09:00:00.0"
"ZESP?? SZK?? W OTMUCHOWIE","KRAKOWSKA","48-385","OTMUCH?W","17.167634","50.4705","87.89333333333333","954.1333333333333","10.75","8.353333333333333","4.3","2023-11-03 09:00:00.0"
"SZKO?A PODSTAWOWA NR 2 IM. ?W. JADWIGI ?L?SKIEJ W PSZCZYNIE","KATOWICKA","43-200","PSZCZYNA","18.947994","49.992568","75.7","966.1666666666666","15.0","2.8000000000000003","1.5033333333333332","2023-11-03 09:00:00.0"
"SZKO?A PODSTAWOWA IM. BOLES?AWA CHROBREGO W ?MIGRODZIE","UL. HENRYKA SIENKIEWICZA","55-140","?MIGR?D","16.9084728","51.4700924","86.5","979.6833333333334","11.525","11.950000000000001","10.15","2023-11-03 09:00:00.0"
"I LICEUM OG?LNOKSZTA?C?CE IM. MIKO?AJA KOPERNIKA W GRAJEWIE","UL. A. MICKIEWICZA","19-200","GRAJEWO","22.452724999999997","53.65094443707044","66.61666666666666","981.8166666666666","9.508333333333333","11.683333333333332","9.558333333333334","2023-11-03 09:00:00.0"
"TECHNIKUM NR 4 W WA?BRZYCHU","UL. K?ODZKA","58-308","WA?BRZYCH","16.3338299","50.7587738","88.66666666666667","932.8916666666668","8.549999999999999","6.583333333333333","4.95","2023-11-03 09:00:00.0"
"SZKO?A PODSTAWOWA NR 3 IM J.S?OWACKIEGO W CZECHOWICACH-DZIEDZICACH","UL. LIPOWSKA","43-502","CZECHOWICE-DZIEDZICE","19.018569","49.8807489","65.85833333333333","956.875","15.883333333333333","4.283333333333333","4.258333333333334","2023-11-03 09:00:00.0"
"SZKO?A PODSTAWOWA STOWARZYSZENIA ABSOLWENT?W I LO W PRZEMY?LU","UL. DWORSKIEGO","37-700","PRZEMY?L","22.7790441750718","49.7813808269014","66.40833333333333","973.0833333333334","10.35","21.583333333333332","15.916666666666666","2023-11-03 09:00:00.0"
"SZKO?A PODSTAWOWA NR 4 IM. PAPIE?A JANA PAW?A II W ??CZNEJ","UL. JA?MINOWA","21-010","??CZNA","22.88259013","51.29206273","76.45833333333333","976.7416666666667","8.708333333333334","18.916666666666668","16.533333333333335","2023-11-03 09:00:00.0"
"SZKO?A PODSTAWOWA IM. PREZYDENTA GABRIELA NARUTOWICZA W CZ?STKOWIE MAZOWIECKIM","CZ?STK?W MAZOWIECKI","05-152","CZ?STK?W MAZOWIECKI","20.746943","52.39131","79.16666666666667","982.0333333333333","14.133333333333333","1.7333333333333334","1.03","2023-11-03 09:00:00.0"
"SZKO?A PODSTAWOWA IM.KSI?DZA JANA TWARDOWSKIEGO W CZACH?WKU","UL. G??WNA","05-530","CZACH?WEK","21.0884246","51.96101922","70.74166666666666","979.8083333333334","11.566666666666668","7.708333333333333","7.25","2023-11-03 09:00:00.0"
"SZKO?A PODSTAWOWA NR 11 Z ODDZIA?AMI INTEGRACYJNYMI IM. KORNELA MAKUSZY?SKIEGO W BIA?YMSTOKU","UL. POLESKA","15-476","BIA?YSTOK","23.1618347","53.1421672","74.58333333333333","983.4583333333334","8.25","13.541666666666666","10.775","2023-11-03 09:00:00.0"
"SZKO?A PODSTAWOWA IM. WO?Y?SKIEJ BRYGADY KAWALERII W MIED?NIE","UL. SZKOLNA","42-120","MIED?NO","18.9868811","50.9680679","91.22500000000001","962.6","11.833333333333334","5.608333333333333","5.25","2023-11-03 09:00:00.0"
"SZKO?A PODSTAWOWA NR 5 IM. MAJORA HENRYKA SUCHARSKIEGO W BYTOWIE","M?Y?SKA","77-100","BYT?W","17.48750","54.16684","98.13333333333333","979.2999999999998","12.299999999999999","6.8999999999999995","3.9166666666666665","2023-11-03 09:00:00.0"
"SZKO?A PODSTAWOWA NR 2 W MROZACH W ZESPOLE SZK?? IM. ADAMA MICKIEWICZA W MROZACH","UL. LICEALNA","05-320","MROZY","21.8026971","52.156954","53.449999999999996","974.4416666666666","13.866666666666667","7.533333333333332","6.041666666666667","2023-11-03 09:00:00.0"
"SZKO?A PODSTAWOWA IM. FRANCISZKA RDUCHA W BE?KU","UL. SZYMOCHY","44-237","BE?K","18.712687","50.134061","55.75","959.6416666666668","17.458333333333332","2.4916666666666667","2.4916666666666667","2023-11-03 09:00:00.0"
"NIEPUBLICZNA SZKO?A PODSTAWOWA IM. DR W. B?E?SKIEJ W KOWALACH","ul. Sadowa","80-180","Gda?sk","18.56359278","54.31377328","93.14166666666667","978.9416666666666","9.991666666666667","17.75","17.508333333333333","2023-11-03 09:00:00.0"
"SZKO?A PODSTAWOWA FUNDACJI ""ELEMENTARZ"" Z ODDZIA?EM PRZEDSZKOLNYM IM. ?W. STANIS?AWA KOSTKI W GOLCACH","GOLCE","37-405","JAROCIN","22.3837533904382","50.5420855272937","76.94166666666666","972.3333333333334","8.958333333333334","10.333333333333334","8.25","2023-11-03 09:00:00.0"
"SZKO?A PODSTAWOWA W PONIATOWIE","UL. SZKOLNA","09-300","PONIATOWO","19.864252","53.041259","81.575","975.1583333333333","10.725","9.85","8.108333333333333","2023-11-03 09:00:00.0"
"SZKO?A PODSTAWOWA W RAC?AWICZKACH","UL. SZKOLNA","47-370","RAC?AWICZKI","17.7792949","50.4791824","89.5","966.775","11.441666666666668","5.158333333333333","4.991666666666667","2023-11-03 09:00:00.0"
"TECHNIKUM W ZESPOLE SZK?? IM. GEN. SYLWESTRA KALISKIEGO W G?RZE","UL. ARMII POLSKIEJ","56-200","G?RA","16.537487","51.663379","91.84166666666665","977.4250000000001","10.966666666666667","12.341666666666667","11.65","2023-11-03 09:00:00.0"
"SZKO?A PODSTAWOWA IM. JANA PAW?A II W WIKIELCU","","14-200","WIKIELEC","19.5189377","53.5801618","85.44545454545454","977.8636363636364","10.009090909090908","5.472727272727273","4.572727272727272","2023-11-03 09:00:00.0"
"SZKO?A PODSTAWOWA NR 5 IM. POLSKICH OLIMPIJCZYK?W W ?WIECIU","UL. WOJSKA POLSKIEGO","86-105","?WIECIE","18.404523109363243","53.4022885304552","88.69166666666666","986.1","10.583333333333334","7.325","7.316666666666666","2023-11-03 09:00:00.0"
"SZKO?A PODSTAWOWA IM. KS. KONSTANTEGO DAMROTA W ZESPOLE SZKOLNO-PRZEDSZKOLNYM W ZWONOWICACH","UL. SUMI?SKA","44-292","ZWONOWICE","18.4378208","50.1433165","82.33333333333333","958.1333333333333","13.116666666666667","7.408333333333332","5.3500000000000005","2023-11-03 09:00:00.0"
"SZKO?A PODSTAWOWA NR 7 IM. HENRYKA SIENKIEWICZA W ORZESZU","UL. UCZNIOWSKA","43-180","ORZESZE","18.797868","50.112122","68.05833333333334","958.3083333333334","15.575000000000001","5.291666666666667","4.825","2023-11-03 09:00:00.0"
"SZKO?A PODSTAWOWA IM. MARSZA?KA J?ZEFA PI?SUDSKIEGO W WARTKOWICACH","UL. LEGION?W POLSKICH","99-220","WARTKOWICE","19.00434298","51.97577194","81.15833333333333","978.1416666666668","12.658333333333333","7.883333333333333","6.166666666666667","2023-11-03 09:00:00.0"
"SZKO?A PODSTAWOWA NR 1 IM.POWSTANC?W WIELKOPOLSKICH W LEGNICY","UL. KAMIENNA","59-220","LEGNICA","16.173446","51.210851","85.91666666666667","974.525","11.283333333333333","16.125","14.341666666666667","2023-11-03 09:00:00.0"
"PUBLICZNA SZKO?A PODSTAWOWA NR 5 IM.MARII D?BROWSKIEJ W RADOMIU","UL. GEN. J?ZEFA SOWI?SKIEGO","26-600","RADOM","21.1619916","51.41283841","62.03333333333333","974.7166666666667","13.325000000000001","3.1916666666666664","3.4499999999999997","2023-11-03 09:00:00.0"
"SAMORZ?DOWA SZKO?A PODSTAWOWA IM. WOJSKA POLSKIEGO W WODZIS?AWIU","UL. SZKOLNA","28-330","WODZIS?AW","20.18925053","50.51810713","75.01666666666667","963.525","11.283333333333333","6.783333333333334","5.758333333333333","2023-11-03 09:00:00.0"
"BRAN?OWA SZKO?A I STOPNIA NR 4 W SZCZECINIE","UL. GEN. J?ZEFA SOWI?SKIEGO","70-236","SZCZECIN","14.539421","53.418348","91.08333333333333","984.625","9.383333333333335","30.741666666666664","27.816666666666666","2023-11-03 09:00:00.0"
"SZKO?A PODSTAWOWA IM. MARIANA FALSKIEGO W KRASZEWICACH","UL. SZKOLNA","63-522","KRASZEWICE","18.22403","51.51563","87.49666666666667","974.3966666666666","12.943333333333333","17.32","9.85","2023-11-03 09:00:00.0"
"LICEUM OG?LNOKSZTA?C?CE W ZESPOLE SZK?? DRZEWNYCH I LE?NYCH IM. JANA KOCHANOWSKIEGO W GARBATCE - LETNISKU","UL. HANKI LEWANDOWICZ","26-930","GARBATKA-LETNISKO","21.62967267","51.49346798","64.35000000000001","976.9333333333334","13.125","3.5500000000000003","3.1666666666666665","2023-11-03 09:00:00.0"
"SZKO?A PODSTAWOWA NR 2 IM. STEFANA MIERZWYW RAKSZAWIE","","37-111","RAKSZAWA","22.23254239","50.17045891","73.33333333333333","971.6","9.316666666666666","20.166666666666668","17.675","2023-11-03 09:00:00.0"
"PUBLICZNA SZKO?A PODSTAWOWA IM. POR. J?ZEFA M?CZKI W ZALESZANACH","UL. SANDOMIERSKA","37-415","ZALESZANY","21.88785883","50.64803753","62.43333333333334","977.5916666666667","12.583333333333334","11.875","10.174999999999999","2023-11-03 09:00:00.0"
"SZKO?A PODSTAWOWA IM. JANA PAW?A II W PISANICY","","19-314","PISANICA","22.5789816","53.8232701","76.06","982.25","7.93","7.99","7.290000000000001","2023-11-03 09:00:00.0"
"SZKO?A PODSTAWOWA IM. KORNELA MAKUSZY?SKIEGO W SKRZYDLOWIE","UL. G??WNA","42-270","SKRZYDL?W","19.3605871","50.8624858","73.66666666666667","961.7583333333333","12.141666666666666","3.4416666666666664","3.733333333333333","2023-11-03 09:00:00.0"
"XXXII LICEUM OG?LNOKSZTA?C?CE IM. HALINY PO?WIATOWSKIEJ W ZESPOLE SZK?? OG?LNOKSZTA?C?CYCH NR 1 W ?ODZI","UL. PIOTRA CZAJKOWSKIEGO","92-511","??D?-WIDZEW","19.54161351","51.75532332","81.5","961.9499999999999","10.991666666666667","6.466666666666666","6.45","2023-11-03 09:00:00.0"
"SZKO?A PODSTAWOWA W SYPITKACH","","19-314","SYPITKI","22.5643375","53.7876812","71.25833333333334","981.3416666666667","8.933333333333334","10.174999999999999","8.458333333333334","2023-11-03 09:00:00.0"
"PRZEDSZKOLE W BLIZNEM JASI?SKIEGO","UL. TADEUSZA KO?CIUSZKI","05-082","BLIZNE JASI?SKIEGO","20.881159640505192","52.2438730196329","68.06666666666666","986.4666666666667","12.366666666666667","6.8","3.766666666666667","2023-11-03 09:00:00.0"
"LXXVIII LICEUM OG?LNOKSZTA?C?CE IM. MARII PAWLIKOWSKIEJ-JASNORZEWSKIEJ W WARSZAWIE","UL. ANIELI KRZYWO?","01-391","WARSZAWA","20.91798648","52.22885819","69.16666666666667","979.1750000000001","12.658333333333333","3.1833333333333336","2.4833333333333334","2023-11-03 09:00:00.0"
"SZKO?A PODSTAWOWA NR 3 IM. KRZYSZTOFA KAMILA BACZY?SKIEGO W RACIBORZU","UL. KAPITANA SERAFINA MY?LIWCA","47-400","Racib?rz","18.26407573","50.07454437","96.175","964.5875","12.4375","13.025","7.8","2023-11-03 09:00:00.0"
"SZKO?A PODSTAWOWA IM. ?WI?TEJ KR?LOWEJ JADWIGI W DYDNI","","36-204","DYDNIA","22.1746713","49.6854658","64.60000000000001","962.725","13.841666666666667","5.2250000000000005","4.891666666666667","2023-11-03 09:00:00.0"
"SZKO?A PODSTAWOWA NR 15 W RZESZOWIE","BUDZIWOJSKA","35-317","RZESZ?W","21.9879100039133","49.9694741013062","69.75833333333334","968.8333333333334","11.200000000000001","1.0","1.0","2023-11-03 09:00:00.0"
"TECHNIKUM W BOLKOWIE","UL. NIEPODLEG?O?CI","59-420","BOLK?W","16.1055099","50.92060569","87.75833333333333","950.6916666666666","9.825000000000001","10.366666666666667","9.075000000000001","2023-11-03 09:00:00.0"
"SZKO?A PODSTAWOWA IM. TADEUSZA KO?CIUSZKI W GASZOWICACH","UL. RYDU?TOWSKA","44-293","GASZOWICE","18.4281481","50.1081405","72.45833333333333","1005.0","9.6","6.583333333333333","6.791666666666667","2023-11-03 09:00:00.0"
"ZESP?? SZKOLNO-PRZEDSZKOLNY W ??CE","FITELBERGA","43-241","??KA","18.906757","49.9582444","95.7","963.8666666666667","14.766666666666666","2.4","1.2","2023-11-03 09:00:00.0"
"SZKO?A PODSTAWOWA IM KS. STANIS?AWA P?KALI W SZALOWEJ","","38-331","SZALOWA","21.020958","49.6826141","70.78333333333333","951.3249999999999","11.525","16.708333333333332","11.766666666666666","2023-11-03 09:00:00.0"
"SZKO?A PODSTAWOWA W PIESZCZU","","76-113","PIESZCZ","16.77799479","54.45917898","93.63333333333333","985.1416666666668","10.924999999999999","31.858333333333334","28.441666666666666","2023-11-03 09:00:00.0"
"I LICEUM OG?LNOKSZTA?C?CE IM. KAZIMIERZA JAGIELLO?CZYKA W SIERADZU","UL ?WIRKI I WIGURY","98-200","SIERADZ","18.7347708958868","51.59577960025272","91.2090909090909","972.7727272727273","11.5","9.6","9.327272727272726","2023-11-03 09:00:00.0"
"PUBLICZNA SZKO?A PODSTAWOWA IM. BOHATER?W WALKI Z FASZYZMEM W ?AMBINOWICACH","UL. OBOZOWA","48-316","?AMBINOWICE","17.5596274","50.538452","87.95833333333333","964.6333333333333","11.141666666666666","6.533333333333334","5.25","2023-11-03 09:00:00.0"
"SZKO?A PODSTAWOWA IM. JANA PAW?A II W SULIKOWIE","UL. ZGORZELECKA","59-975","SULIK?W","15.0710322","51.0758548","78.86666666666666","964.4333333333334","11.158333333333333","23.983333333333334","23.55","2023-11-03 09:00:00.0"
"SZKO?A PODSTAWOWA ZGROMADZENIA C?REK BO?EJ MI?O?CI IM. FRANCISZKI LECHNER W BIELSKU-BIA?EJ","UL. W?ADYS?AWA BRONIEWSKIEGO","43-300","BIELSKO-BIA?A","19.054075","49.819524","65.83333333333333","950.2666666666668","14.966666666666667","3.358333333333333","3.1166666666666667","2023-11-03 09:00:00.0"
"SZKO?A PODSTAWOWA IM. ADAMA MICKIEWICZA W KOBIELICACH","UL. TOPOLOWA","43-262","KOBIELICE","18.8580059","50.0122572","70.28333333333333","958.5083333333333","15.133333333333333","3.766666666666667","4.033333333333333","2023-11-03 09:00:00.0"
"TECHNIKUM NR 2 IM. EMILII PLATER W PIASECZNIE","UL. ALEJA BRZ?Z","05-501","PIASECZNO","21.02070292","52.0540252","70.08333333333333","980.7833333333333","12.225","10.258333333333333","9.358333333333333","2023-11-03 09:00:00.0"
"SZKO?A PODSTAWOWA NR 9 IM. BERNARDA ?WIERCZYNY W MYS?OWICACH","UL. ARMII KRAJOWEJ","41-400","MYS?OWICE","19.1324669","50.239944","72.53","957.5899999999999","13.419999999999998","8.16","7.460000000000001","2023-11-03 09:00:00.0"
"V LICEUM OG?LNOKSZTA?C?CE W RYBNIKU","UL. ORZEPOWICKA","44-217","RYBNIK","18.51736","50.0994589","69.63333333333334","960.1750000000001","14.700000000000001","5.258333333333334","4.6000000000000005","2023-11-03 09:00:00.0"
"EKOLOGICZNA SZKO?A PODSTAWOWA NR 7 IM. JULIANA TUWIMA W BIELAWIE","OS. OSIEDLE W??KNIARZY","58-260","BIELAWA","16.619114371164812","50.690333832287315","91.89166666666667","954.6999999999999","10.266666666666667","14.983333333333334","11.75","2023-11-03 09:00:00.0"
"SZKO?A PODSTAWOWA IM. 10 BRYGADY KAWALERII PANCERNEJ W KRZYWEJ ","","59-225","KRZYWA","15.81206583","51.28056359","89.45","968.7583333333333","9.858333333333333","5.3999999999999995","4.816666666666666","2023-11-03 09:00:00.0"
"SZKO?A PODSTAWOWA NR 20 IM.II MORSKIEGO PU?KU STRZELC?W W GDYNI","UL. STARODWORCOWA","81-575","GDYNIA","18.495846","54.464583","99.96666666666665","976.1583333333333","10.358333333333334","8.325000000000001","9.424999999999999","2023-11-03 09:00:00.0"
"TECHNIKUM LE?NE W MILICZU","UL. KASZTELA?SKA","56-300","MILICZ","17.2664553","51.5302895","90.76666666666667","977.5416666666666","11.991666666666667","7.175","5.425","2023-11-03 09:00:00.0"
"SZKO?A PODSTAWOWA IM. MARII KONOPNICKIEJ W SOSN?WCE","UL. STRA?ACKA","58-564","SOSN?WKA","15.7230035","50.8177069","87.50833333333333","944.7416666666667","9.308333333333334","4.225","3.3833333333333333","2023-11-03 09:00:00.0"
"SZKO?A PODSTAWOWA NR 3 IM. ADAMA MICKIEWICZA W SZAMOTU?ACH","UL. SZCZUCZY?SKA","64-500","SZAMOTU?Y","16.575982","52.618146","49.20000000000001","993.7999999999998","31.899999999999995","7.0","3.39","2023-11-03 09:00:00.0"
"SZKO?A PODSTAWOWA W OTOROWIE","UL. ??KOWA","64-551","OTOROWO","16.433729","52.563226","75.1","1004.9","28.5","8.2","4.8","2023-11-03 09:00:00.0"
"SZKO?A PODSTAWOWA NR 7 IM. ?W. JANA PAW?A II W SUWA?KACH","UL. ROMUALDA MINKIEWICZA","16-400","Suwa?ki","22.9350803","54.12461641","77.08333333333333","977.7333333333332","8.108333333333333","13.766666666666666","12.758333333333333","2023-11-03 09:00:00.0"
"SZKO?A PODSTAWOWA IM. MARII SK?ODOWSKIEJ-CURIE W KAW?CZYNIE","KAW?CZYN","62-704","KAW?CZYN","18.53126","51.90873","84.30333333333333","974.4033333333333","12.979999999999999","19.153333333333332","11.383333333333333","2023-11-03 09:00:00.0"
"SZKO?A PODSTAWOWA NR 4 W RYDU?TOWACH","UL. STRZELC?W BYTOMSKICH","44-280","RYDU?TOWY","18.417777","50.06633209","83.61666666666666","956.7833333333333","13.633333333333333","23.691666666666666","20.425","2023-11-03 09:00:00.0"
"SZKO?A PODSTAWOWA NR 13 IM. KS. FRANCISZKA BLACHNICKIEGO W JASTRZ?BIU-ZDROJU","UL. KATOWICKA","44-335","JASTRZ?BIE-ZDR?J","18.6101103","49.9454207","70.49166666666666","956.5833333333334","15.025","2.9416666666666664","2.3916666666666666","2023-11-03 09:00:00.0"
"SZKO?A PODSTAWOWA W WINOWNIE","UL. SZKOLNA","42-350","WINOWNO","19.2179609","50.575152","69.90833333333333","950.2333333333332","12.216666666666667","3.908333333333333","3.5583333333333336","2023-11-03 09:00:00.0"
"XXIII LICEUM OG?LNOKSZTA?C?CE IM. KS. PROF. J?ZEFA TISCHNERA","AL. MARSZ. J?ZEFA PI?SUDSKIEGO","92-301","??d?","19.50952146","51.76322604","78.60000000000001","964.8499999999999","11.299999999999999","5.733333333333333","5.2","2023-11-03 09:00:00.0"
"SZKO?A PODSTAWOWA NR 2 IM. BATALION?W CH?OPSKICH W SU?OSZOWEJ","UL. OLKUSKA","unknow","SU?OSZOWA","19.70575937116404","50.27412008191642","79.65833333333333","1006.2000000000002","9.691666666666666","4.9750000000000005","3.9","2023-11-03 09:00:00.0"
"SPO?ECZNA SZKO?A PODSTAWOWA IM. JULIUSZA S?OWACKIEGO W TORUNIU","UL. W?ADYS?AWA DZIEWULSKIEGO","87-100","TORU?","18.676159300000002","53.02777363684514","86.43333333333334","981.875","11.325000000000001","9.683333333333334","9.0","2023-11-03 09:00:00.0"
"SZKO?A PODSTAWOWA W BORECZNIE","","14-230","BORECZNO","19.6819503","53.785392","81.91666666666667","978.0666666666666","9.908333333333333","5.266666666666667","4.45","2023-11-03 09:00:00.0"
"SZKO?A PODSTAWOWA NR 7 IM. ADAMA MICKIEWICZA W GLIWICACH","UL. TARNOG?RSKA","44-100","GLIWICE","18.684621","50.306626","71.575","960.0666666666666","14.775","4.375","3.908333333333333","2023-11-03 09:00:00.0"
"MIEJSKA SZKO?A PODSTAWOWA Z ODDZIA?AMI INTEGRACYJNYMI NR 2 IM. KAROLA MIARKI W KNUROWIE","UL. WILSONA","44-190","KNUR?W","18.664685","50.223275","68.05833333333334","962.7416666666667","15.950000000000001","3.0","2.283333333333333","2023-11-03 09:00:00.0"
"SZKO?A PODSTAWOWA IM. MARGARETHY KAMPRAD W JAROSTACH","UL. LE?NA","97-310","JAROSTY","19.68775849","51.45636536","73.99166666666666","967.8333333333334","11.083333333333334","6.616666666666667","5.666666666666667","2023-11-03 09:00:00.0"
"SZKO?A PODSTAWOWA NR 3 IM. JANA PAW?A II W RAKSZAWIE","","37-111","RAKSZAWA","22.22671","50.187515","72.42727272727274","966.3636363636364","8.718181818181819","15.754545454545456","13.781818181818181","2023-11-03 09:00:00.0"
"SZKO?A PODSTAWOWA IM. DR HENRYKA JORDANA W KSAWEROWIE","UL. ZACHODNIA","95-054","KSAWER?W","19.39486431","51.68227822","81.25833333333334","967.0833333333334","11.083333333333334","6.908333333333334","6.55","2023-11-03 09:00:00.0"
"SZKO?A PODSTAWOWA NR 2 IM. TADEUSZA KO?CIUSZKI W WIELICZCE","UL. STANIS?AWA MONIUSZKI","32-020","WIELICZKA","20.059786","49.98544","70.65833333333333","963.6","13.866666666666667","3.2083333333333335","3.141666666666667","2023-11-03 09:00:00.0"
"TECHNIKUM NR 3 W ZESPOLE SZK?? NR 3 IM. KS. PROF. J?ZEFA TISCHNERA W BOCHNI","UL. KRAKOWSKA","32-700","BOCHNIA","20.421654","49.965508","71.69166666666666","964.525","13.174999999999999","3.0833333333333335","2.75","2023-11-03 09:00:00.0"
"SZKO?A PODSTAWOWA IM. WANDY RUTKIEWICZ W JANOWICACH WIELKICH","UL. PARTYZANT?W","58-520","JANOWICE WIELKIE","15.925671","50.88188","89.88181818181819","945.1","9.490909090909092","25.363636363636363","19.745454545454546","2023-11-03 09:00:00.0"
"SZKO?A PODSTAWOWA W WARCINIE IM. KS. PRA?ATA ALFREDA OSIPOWICZA W WARCINIE","","77-230","WARCINO","16.85729458","54.22542881","100.0","978.6083333333332","11.1","11.549999999999999","11.0","2023-11-03 09:00:00.0"
"SZKO?A PODSTAWOWA IM. HENRYKA DRZAZGI W LGOCIE MA?EJ W ZESPOLE SZKOLNO-PRZEDSZKOLNYM W LGOCIE MA?EJ","UL. SZKOLNA","42-282","LGOTA MA?A","19.339293","50.984863","75.27272727272727","962.8181818181819","11.290909090909091","4.309090909090909","3.4545454545454546","2023-11-03 09:00:00.0"
"SZKO?A PODSTAWOWA IM. KS. JANA TWARDOWSKIEGO W RACIMIERZU","UL. NIEPODLEG?O?CI","72-111","RACIMIERZ","14.65747308","53.7423708","99.76666666666667","987.1","9.65","19.041666666666668","18.28333333333333","2023-11-03 09:00:00.0"
"SZKO?A PODSTAWOWA IM. WINCENTEGO WITOSA W RUDZIE","UL. D?UGA","98-300","RUDA","18.61306827","51.19785979","86.6","966.25","11.6","16.799999999999997","16.5","2023-11-03 09:00:00.0"
"SZKO?A PODSTAWOWA COGITO Z ODDZIA?AMI DWUJ?ZYCZNYMI W ZGORZELCU","UL. MARSZ. J?ZEFA PI?SUDSKIEGO","59-900","ZGORZELEC","15.0022784","51.15077998","81.84545454545454","966.5","10.654545454545454","9.909090909090908","10.081818181818182","2023-11-03 09:00:00.0"
"SZKO?A PODSTAWOWA W GROMCU","UL. HUSARSKA","32-590","GROMIEC","19.2846434","50.0550119","69.625","1007.9833333333332","9.6","3.391666666666666","2.6916666666666664","2023-11-03 09:00:00.0"
"SZKO?A PODSTAWOWA NR 3 IM. MARII KONOPNICKIEJ W CHOJNOWIE","UL. W?ADYS?AWA REYMONTA","59-225","CHOJN?W","15.92934","51.27254","99.90000000000002","967.4333333333334","11.233333333333334","32.06666666666667","19.14666666666667","2023-11-03 09:00:00.0"
"SZKO?A PODSTAWOWA IM. KORNELA MAKUSZY?SKIEGO W ZESPOLE SZKOLNO - PRZEDSZKOLNYM W ?OJKACH","UL. D?UGA","42-290","?OJKI","19.005388","50.7962799","69.325","958.3166666666666","12.966666666666667","7.575","5.883333333333333","2023-11-03 09:00:00.0"
"SZKO?A PODSTAWOWA NR 13 IM. ORL?T LWOWSKICH W SZCZECINIE","UL. BA?TYCKA","70-880","SZCZECIN","14.7642087"," 53.38566007","88.375","986.3333333333334","10.016666666666667","10.883333333333333","12.5","2023-11-03 09:00:00.0"
"PUBLICZNA SZKO?A PODSTAWOWA W KAD?UBIE","UL. POWSTA?C?W ?L?SKICH","47-175","KAD?UB","18.26324","50.612797181770425","91.3","968.0181818181819","12.336363636363636","10.863636363636363","10.118181818181817","2023-11-03 09:00:00.0"
"SZKO?A PODSTAWOWA NR 1 IM. ?W.JANA PAW?A II W K?ODAWIE","UL. KO?CIELNA","62-650","K?ODAWA","18.9134684","52.2542661","85.33333333333333","976.7333333333332","11.583333333333334","23.891666666666666","21.883333333333336","2023-11-03 09:00:00.0"
"SZKO?A PODSTAWOWA NR 3 I. BOHATER?W POWSTANIA WARSZAWSKIEGO Z ODDZIA?AMI INTEGRACYJNYMI W PIASTOWIE","UL. ALEJA TYSI?CLECIA","05-820","PIAST?W","20.841563186509138","52.178313490439706","71.18333333333334","981.0083333333333","11.741666666666667","5.175","4.258333333333334","2023-11-03 09:00:00.0"
"SZKO?A PODSTAWOWA NR 5 IM. KSI?CIA MAZOWIECKIEGO SIEMOWITA IV W GOSTYNINIE","UL. POLNA","09-500","GOSTYNIN","19.46185866","52.42027883","85.75833333333333","980.0833333333334","10.391666666666667","5.2","4.2250000000000005","2023-11-03 09:00:00.0"
"PUBLICZNA SZKO?A PODSTAWOWA IM. MARII KONOPNICKIEJ W JORDANOWIE ?L?SKIM","WROC?AWSKA","55-065","JORDAN?W ?L?SKI","16.8656","50.8654","96.20666666666666","975.0433333333334","12.520000000000001","7.82","4.3566666666666665","2023-11-03 09:00:00.0"
"SZKO?A PODSTAWOWA IM. JANA D?UGOSZA W PIEKARACH","","32-060","PIEKARY","19.79719","50.02279","97.4","967.5916666666667","14.526666666666667","2.99","3.42","2023-11-03 09:00:00.0"
"SZKO?A PODSTAWOWA NR 16 IM. JANUSZA KORCZAKA W RUDZIE ?L?SKIEJ","UL. KUKU?CZA","41-710","RUDA ?L?SKA","18.88033","50.268433","70.2","958.3833333333333","14.5","2.2916666666666665","2.033333333333333","2023-11-03 09:00:00.0"
"TECHNIKUM NR 1 W PIASECZNIE","UL. SZPITALNA","05-500","PIASECZNO","21.0220213","52.064158","70.11666666666666","980.0666666666666","12.158333333333333","4.25","3.2416666666666667","2023-11-03 09:00:00.0"
"ZESP?? SZKOLNO-PRZEDSZKOLNY W KAZUNIU NOWYM","G??WNA","05-152","KAZU? NOWY","20.68265","52.419853","77.73333333333333","990.6999999999999","12.700000000000001","1.7666666666666668","1.0366666666666666","2023-11-03 09:00:00.0"
"SZKO?A PODSTAWOWA W GROMADCE","UL. GEN. W?. SIKORSKIEGO","59-706","GROMADKA","15.76266314","51.35525115","97.5","972.5333333333333","12.433333333333332","22.8","12.313333333333333","2023-11-03 09:00:00.0"
"SZKO?A PODSTAWOWA NR 20 IM. GEN. W?ADYS?AWA SIKORSKIEGO W BIA?YMSTOKU","UL. LE?NA","15-559","BIA?YSTOK","23.20856832883596","53.11937961459712","78.15833333333333","982.475","7.8","8.85","7.541666666666667","2023-11-03 09:00:00.0"
"LICEUM OG?LNOKSZTA?C?CE W LIPSKU","UL. ZWOLE?SKA","27-300","LIPSKO","21.65162688","51.16209825","68.47500000000001","976.3916666666668","12.649999999999999","7.425","6.1000000000000005","2023-11-03 09:00:00.0"
"SZKO?A PODSTAWOWA W ZBICZNIE","","87-305","ZBICZNO","19.374579","53.3339494","98.95714285714287","976.2571428571429","9.671428571428573","16.814285714285713","12.642857142857142","2023-11-03 09:00:00.0"
"ZESP?? SZKOLNO-PRZEDSZKOLNY IM. B?. O. MICHA?A CZARTORYSKIEGO W PE?KINIACH","PE?KINIE","37-511","PE?KINIE","22.6256056782619","50.0630311259663","76.975","974.0","6.875","2.0","2.0","2023-11-03 09:00:00.0"
"BRAN?OWA SZKO?A I STOPNIA W SOCHACZEWIE","UL. MARSZA?KA J?ZEFA PI?SUDSKIEGO","96-500","SOCHACZEW","20.24313864","52.21990386","78.88181818181819","980.6454545454545","10.718181818181819","7.709090909090909","7.263636363636363","2023-11-03 09:00:00.0"
"LICEUM OG?LNOKSZTA?C?CE W SZCZYTNIE","UL. JERZEGO LANCA","12-100","Szczytno","21.00763106","53.56301256","66.23333333333333","976.75","10.466666666666667","13.866666666666667","12.283333333333333","2023-11-03 09:00:00.0"
"SZKO?A PODSTAWOWA W PISKOROWICACH","","37-300","PISKOROWICE","22.5273466","50.2359231","73.35833333333333","976.5083333333333","9.416666666666666","10.691666666666668","8.041666666666666","2023-11-03 09:00:00.0"
"SZKO?A PODSTAWOWA W WOLI WIELKIEJ","","39-218","WOLA WIELKA","21.342836","50.08146","69.94166666666666","971.1166666666667","13.416666666666666","3.6666666666666665","2.9416666666666664","2023-11-03 09:00:00.0"
"SZKO?A PODSTAWOWA Z ODDZIA?AMI INTEGRACYJNYMI NR 34 IM. IRENY SENDLEROWEJ W RYBNIKU","UL. W?ADYS?AWA STANIS?AWA REYMONTA","44-200","RYBNIK","18.52614","50.09058","70.8","958.2333333333332","14.200000000000001","5.708333333333333","4.125","2023-11-03 09:00:00.0"
"SPECJALNA PRZYSZPITALNA NIEPUBLICZNA SZKO?A PODSTAWOWA PRZY SUDECKIM CENTRUM ZDROWIA W PIESZYCACH","UL. KSI?DZA EMILA PAGACZA","58-250","PIESZYCE","16.58036735","50.71553783","85.35000000000001","953.5666666666666","10.075000000000001","0.26666666666666666","0.18333333333333335","2023-11-03 09:00:00.0"
"SZKO?A PODSTAWOWA W ZAWIDZU KO?CIELNYM","UL. MAZOWIECKA","09-226","ZAWIDZ KO?CIELNY","19.870229928959297","52.82718910632357","88.35454545454546","977.1181818181817","10.10909090909091","7.0636363636363635","6.536363636363637","2023-11-03 09:00:00.0"
"SZKO?A PODSTAWOWA IM.TADEUSZA KO?CIUSZKI W G?OGOCZOWIE","","32-444","G?OGOCZ?W","19.8764713","49.8949648","78.575","961.8166666666666","12.15","8.033333333333333","7.125","2023-11-03 09:00:00.0"
"SZKO?A PODSTAWOWA IM. KS. W?ADYS?AWA ?WIDRA W CZARNEJ S?DZISZOWSKIEJ","CZARNA SEDZISZOWSKA","39-123","CZARNA S?DZISZOWSKA","21.754106016886215","50.1227781306038","91.40000000000002","1006.0","1.1","15.0","11.0","2023-11-03 09:00:00.0"
"SZKO?A PODSTAWOWA IM. POWSTA?C?W WIELKOPOLSKICH W MIA?ACH","UL. POWSTA?C?W WIELKOPOLSKICH","64-730","Mia?y","16.17018436","52.80629113","93.475","980.75","10.425","10.275","9.8","2023-11-03 09:00:00.0"
"SZKO?A PODSTAWOWA NR 1 IM. STANIS?AWA STASZICA W CHODZIE?Y","ul. Stanis?awa Staszica","64-800","Chodzie?","16.92059412","52.99112838","94.02000000000001","981.18","11.120000000000001","27.119999999999997","24.95","2023-11-03 09:00:00.0"
"SZKO?A PODSTAWOWA IM. W?ADYS?AWA J??WICKIEGO W G?RZNIE ","UL. D?UGA","08-404","G?RZNO","21.705990699999997","51.84700102762625","64.02499999999999","976.5583333333334","11.241666666666667","7.791666666666667","7.2","2023-11-03 09:00:00.0"
"SZKO?A PODSTAWOWA NR 2 IM. W?ADYS?AWA W?GLOWSKIEGO W S?DZISZOWIE MA?OPOLSKIM","UL. KS. STANIS?AWA MACI?GA","39-120","S?DZISZ?W MA?OPOLSKI","21.7037723383102","50.0702495915389","37.40833333333334","968.0","20.033333333333335","4.5","4.333333333333333","2023-11-03 09:00:00.0"
"SZKO?A PODSTAWOWA W SILNIE","UL. G??WNA","89-620","SILNO","17.6993","53.65103","82.2","969.5666666666666","14.699999999999998","3.9333333333333336","2.143333333333333","2023-11-03 09:00:00.0"
"SZKO?A PODSTAWOWA IM. OR?A BIA?EGO W KUROWICACH FILIA W WOLI RAKOWEJ","SZKOLNA","95-006","WOLA RAKOWA","19.61157","51.67447","99.90000000000002","966.7333333333332","10.5","14.233333333333334","8.043333333333333","2023-11-03 09:00:00.0"
"SZKO?A PODSTAWOWA NR 8 IM. W?ADYS?AWA WEBERA W ZESPOLE SZKOLNO-PRZEDSZKOLNYM Z ODDZIA?AMI INTEGRACYJNYMI NR 1 W RYBNIKU","UL. GLIWICKA","44-207","RYBNIK","18.5462847","50.1021742","65.59166666666667","960.0416666666666","16.566666666666666","6.941666666666666","5.2749999999999995","2023-11-03 09:00:00.0"
"SZKO?A PODSTAWOWA W KRZESZOWIE","UL. BETLEJEMSKA","58-400","KRZESZ?W","16.0646514","50.7333391","87.55833333333334","935.9416666666666","8.674999999999999","14.466666666666667","12.658333333333333","2023-11-03 09:00:00.0"
"TECHNIKUM W SEJNACH","UL. KONARSKIEGO","16-500","SEJNY","23.33861373","54.10713149","82.0","981.8","7.3","14.1","11.5","2023-11-03 09:00:00.0"
"TECHNIKUM W BIECZU","UL. KAZIMIERZA WIELKIEGO","38-340","BIECZ","21.255765242327236","49.73291457112003","70.375","964.475","12.200000000000001","6.083333333333333","4.9750000000000005","2023-11-03 09:00:00.0"
"SZKO?A PODSTAWOWA NR 7 IM. BOHATER?W WESTERPLATTE W L?BORKU","SKARGI","84-300","L?BORK","17.755129","54.5367","99.90000000000002","987.0666666666666","12.333333333333334","5.1000000000000005","2.793333333333333","2023-11-03 09:00:00.0"
"SZKO?A PODSTAWOWA IM.JOACHIMA LELEWELA W JAKUBOWICACH KONI?SKICH","UL. SZKOLNA","21-003","JAKUBOWICE KONI?SKIE","22.52628594","51.31010447","76.72500000000001","972.7333333333332","8.741666666666667","18.150000000000002","14.858333333333334","2023-11-03 09:00:00.0"
"SZKO?A PODSTAWOWA NR 6 IM. IRENY SENDLEROWEJ W CHE?MIE","UL. POWSTA?C?W WARSZAWY","22-100","CHE?M","23.479142939944662","51.126339150220325 ","79.13333333333334","975.8416666666667","8.733333333333333","25.650000000000002","22.041666666666668","2023-11-03 09:00:00.0"
"SZKO?A PODSTAWOWA IM. GEN. W?. SIKORSKIEGO W HY?NEM","HY?NE","36-024","HY?NE","22.1602553978308","49.9243953731159","77.1","989.0","8.9","46.0","30.0","2023-11-03 09:00:00.0"
"SZKO?A PODSTAWOWA NR 4 IM.PROF. ROMANA PODOSKIEGO W OLE?NICY","UL. IGNACEGO PADEREWSKIEGO","56-400","OLE?NICA","17.3883791","51.2047183","90.26666666666667","967.8166666666666","11.641666666666666","7.016666666666667","6.366666666666667","2023-11-03 09:00:00.0"
"SZKO?A PODSTAWOWA W P??WIESKU MA?YM","","87-337","P??WIESK MA?Y","19.2209039","53.1414488","91.24166666666667","977.5749999999999","9.683333333333332","8.291666666666666","7.166666666666667","2023-11-03 09:00:00.0"
"BRAN?OWA SZKO?A I STOPNIA NR 1 W OPOCZNIE","UL. WOJCIECHA KOSSAKA","26-300","OPOCZNO","20.27237638","51.37764127","80.63333333333334","969.3083333333334","11.75","7.858333333333333","7.391666666666667","2023-11-03 09:00:00.0"
"PUBLICZNA SZKO?A PODSTAWOWA IM. O. STANIS?AWA PAPCZY?SKIEGO W MARIA?SKIM PORZECZU","","08-470","MARIA?SKIE PORZECZE","21.33261521","51.88402213","70.1","982.4333333333334","12.450000000000001","6.733333333333333","6.541666666666667","2023-11-03 09:00:00.0"
"SZKO?A PODSTAWOWA NR 35 Z ODDZIA?AMI INTEGRACYJNYMI IM. MATKI TERESY Z KALKUTY W TYCHACH","AL. MARSZA?KA PI?SUDSKIEGO","43-100","TYCHY","18.9864571","50.1087174","61.041666666666664","1006.7000000000002","14.966666666666667","5.816666666666666","5.608333333333333","2023-11-03 09:00:00.0"
"SZKO?A PODSTAWOWA IM. STANIS?AWA WYSPIA?SKIEGO W FILIPOWICACH","","32-065","FILIPOWICE","19.5674615","50.1510153","85.24166666666666","955.3333333333334","12.116666666666667","4.8","4.225","2023-11-03 09:00:00.0"
"SZKO?A PODSTAWOWA NR 11 IM. HENRYKA JORDANA W PRZEMY?LU","UL. W?ADYCZE 5","37-700","PRZEMY?L","22.7749834457124","49.7816482216614","67.4","999.0","18.3","15.0","12.0","2023-11-03 09:00:00.0"
"SZKO?A PODSTAWOWA NR 6?IM. IGNACEGO ?UKASZEWICZA W CZECHOWICACH-DZIEDZICACH","UL. ?UKASIEWICZA","43-502","CZECHWICE-DZIEDZICE","19.016493","49.899404","65.7","938.6","15.566666666666668","1.4000000000000001","0.77","2023-11-03 09:00:00.0"
"PUBLICZNA SZKO?A PODSTAWOWA IM. HELENY I J?ZEFA ?WI?TY?SKICH W OSSALI","","28-221","OSSALA","21.3789417","50.4840431","73.38333333333334","974.0500000000001","11.183333333333332","9.924999999999999","8.883333333333333","2023-11-03 09:00:00.0"
"NIEPUBLICZNA SZKO?A PODSTAWOWA MI?DZYNARODOWA AKADEMIA MONTESSORI W MOKRONOSIE G?RNYM","UL. WROC?AWSKA","55-080","MOKRONOS G?RNY","16.9163528","51.0752169","84.25833333333334","974.4499999999999","12.291666666666666","12.158333333333333","10.450000000000001","2023-11-03 09:00:00.0"
"TECHNIKUM W GIEBU?TOWIE W ZESPOLE SZK?? PONADPODSTAWOWYCH IM. WINCENTEGO WITOSA W GIEBU?TOWIE","OS. SZKOLNE","32-085","GIEBU?T?W","19.8869657","50.1393595","71.375","956.2333333333332","13.191666666666668","4.033333333333333","3.891666666666667","2023-11-03 09:00:00.0"
"SZKO?A PODSTAWOWA IM. POWSTA?C?W WIELKOPOLSKICH W WIRACH","UL. SZRENIAWSKA","62-051","WIRY","16.846441","52.317812","71.7","1030.4","27.7","7.7","4.52","2023-11-03 09:00:00.0"
"LICEUM OG?LNOKSZTA?C?CE SZKO?A MISTRZOSTWA SPORTOWEGO W KOLARSTWIE W ?WIDNICY","UL. ROMUALDA TRAUGUTTA","58-100","?WIDNICA","16.677532","51.0740481","85.175","960.7333333333332","10.491666666666667","3.8250000000000006","3.625","2023-11-03 09:00:00.0"
"SZKO?A PODSTAWOWA NR 2 IM. HENRYKA SIENKIEWICZA W ZESPOLE SZKOLNO-PRZEDSZKOLNYM W WIERBCE","UL. SZKOLNA","42-436","WIERBKA","19.7159218","50.4729797","87.75833333333333","951.4583333333334","11.358333333333334","9.641666666666667","5.616666666666667","2023-11-03 09:00:00.0"
"SZKO?A PODSTAWOWA W O?DAKACH","","07-411","O?DAKI","21.692978","53.095518","65.80833333333334","982.0833333333334","10.758333333333333","8.866666666666667","8.116666666666667","2023-11-03 09:00:00.0"
"SZKO?A PODSTAWOWA NR 3 Z ODDZIA?AMI INTEGRACYJNYMI IM. ADAMA MICKIEWICZA W CHE?MIE","UL. REJOWIECKA","22-100","CHE?M","23.450305","51.144488","75.27499999999999","978.5916666666667","10.125","20.849999999999998","16.575","2023-11-03 09:00:00.0"
"SZKO?A PODSTAWOWA IM. JANA PAW?A II W JONINACH","","33-160","JONINY","21.1750307","49.8859362","69.9857142857143","962.8357142857143","11.549999999999999","2.992857142857143","2.6714285714285713","2023-11-03 09:00:00.0"
"SZKO?A PODSTAWOWA W RAJKOWACH W ZESPOLE KSZTA?CENIA I WYCHOWANIA W RAJKOWACH","UL. JESIONOWA","83-130","RAJKOWY","18.7092112","53.9610738","85.97500000000001","982.5","10.783333333333333","6.316666666666666","5.7","2023-11-03 09:00:00.0"
"SZKO?A PODSTAWOWA W WOLI W?GIERSKIEJ","","37-560","WOLA W?GIERSKA","22.5612181","49.8633435","70.60000000000001","967.0916666666667","10.700000000000001","12.916666666666666","10.625","2023-11-03 09:00:00.0"
"TECHNIKUM IM. WINCENTEGO WITOSA W STUDZIE?CU","","09-200","STUDZIENIEC","19.640243","52.877888","80.70833333333333","977.4250000000001","10.575","6.9750000000000005","6.05","2023-11-03 09:00:00.0"
"PUBLICZNA SZKO?A PODSTAWOWA W LEWINIE K?ODZKIM","UL. KO?CIELNA","57-343","LEWIN K?ODZKI","16.2909777","50.4056168","89.2","937.0166666666668","8.658333333333333","4.341666666666666","4.5249999999999995","2023-11-03 09:00:00.0"
"SZKO?A PODSTAWOWA W LISZYNIE","UL. WAWRZY?CA SIKORY","09-408","LISZYNO","19.817459454245913","52.49033616836436","88.89","980.4733333333334","10.863333333333335","11.219999999999999","6.103333333333334","2023-11-03 09:00:00.0"
"SZKO?A PODSTAWOWA NR 42 IM. KONSTANTEGO ILDEFONSA GA?CZY?SKIEGO W LUBLINIE","UL. RYCERSKA","20-552","LUBLIN","22.51737314","51.28129644","74.58333333333333","970.5","10.033333333333333","10.683333333333332","9.625","2023-11-03 09:00:00.0"
"SZKO?A PODSTAWOWA NR 4 IM.FRANCISZKA STUSKA W ORZESZU JA?KOWICACH","UL. STUSKA","43-180","ORZESZE","18.746978","50.145788","71.39999999999999","955.775","15.566666666666668","2.283333333333333","1.9333333333333333","2023-11-03 09:00:00.0"
"PUBLICZNA SZKO?A PODSTAWOWA IM. JANUSZA KORCZAKA W JASIENICY","UL. PAW?A JASIENICY","07-304","JASIENICA","22.04034","52.80435","64.96315789473684","982.7421052631578","12.147368421052633","0.0","0.0","2023-11-03 09:00:00.0"
"IV LICEUM OG?LNOKSZTA?C?CE IM. ORL?T LWOWSKICH W GLIWICACH","UL. KOZIELSKA","44-100","GLIWICE","18.654651","50.298038","69.18333333333334","963.7833333333333","15.591666666666667","3.4166666666666665","2.8000000000000003","2023-11-03 09:00:00.0"
"SZKO?A PODSTAWOWA IM.KS.JANA TWARDOWSKIEGO W KOLNICZKACH","","63-040","KOLNICZKI","17.3618409","52.045122","90.51666666666667","976.6333333333333","11.433333333333332","5.008333333333333","4.133333333333334","2023-11-03 09:00:00.0"
"SZKO?A PODSTAWOWA NR 3 W LUBONIU","ARMII POZNA?","62-030","LUBO?","16.8968","52.3481","99.90000000000002","973.2666666666668","10.6","23.03333333333333","13.18","2023-11-03 09:00:00.0"
"SZKO?A PODSTAWOWA NR 1 W POZNANIU","UL. HEZJODA","60-461","POZNA?","16.881647","52.443367","29.5","1012.5","33.0","3.2000000000000006","2.0","2023-11-03 09:00:00.0"
"SZKO?A PODSTAWOWA NR 29 IM. TADEUSZA KO?CIUSZKI W RZESZOWIE","UL. PARTYZANT?W","35-234","RZESZ?W","22.00675633","50.04931405","73.02499999999999","972.8833333333333","11.408333333333333","7.7749999999999995","6.958333333333333","2023-11-03 09:00:00.0"
"SZKO?A PODSTAWOWA IM. MIKO?AJA KOPERNIKA W ROGOWIE","UL. SZKOLNA","88-420","ROGOWO","17.6514186","52.7279476","91.05833333333334","977.8333333333334","11.033333333333333","9.883333333333333","9.341666666666667","2023-11-03 09:00:00.0"
"SZKO?A PODSTAWOWA IM. WINCENTEGO WO?NIAKA W CZY?OWICACH","UL. WODZIS?AWSKA","44-352","CZY?OWICE","18.404863","49.98451","76.875","956.8916666666668","14.325000000000001","11.158333333333333","8.875","2023-11-03 09:00:00.0"
"SZKO?A PODSTAWOWA NR 6 IM. MICHA?A ELWIRO ANDRIOLLEGO W OTWOCKU","UL. AMBASADORSKA","05-402","OTWOCK","21.23886","52.10802","47.0","1000.0","3.0","3.0","3.2516666666666665","2023-11-03 09:00:00.0"
"SZKO?A PODSTAWOWA NR 7 IM. ?O?NIERZY WRZE?NIA W ?WIKLICACH","UL. M?CZENNIK?W O?WI?CIMSKICH","43-229","?WIKLICE","18.989839","49.971937","83.36666666666666","958.9333333333334","15.166666666666666","94.8","56.29","2023-11-03 09:00:00.0"
"SAMORZ?DOWY ZESP?? SZK?? IM. MARII KONOPNICKIEJ W GORZOWIE","ul. Szkolna","32-660","Che?mek","19.22562401","50.07910829","73.47500000000001","962.9333333333334","13.816666666666668","8.583333333333334","6.833333333333333","2023-11-03 09:00:00.0"
"TECHNIKUM W PSZOWIE","UL. ROMUALDA TRAUGUTTA","44-370","PSZ?W","18.40378202","50.0419266","81.73333333333333","952.8416666666667","12.791666666666666","18.533333333333335","15.316666666666668","2023-11-03 09:00:00.0"
"SZKO?A PODSTAWOWA NR 6 IM. LUDWIKA WARY?SKIEGO W S?UPSKU","UL. STARZY?SKIEGO","76-200","S?UPSK","17.023811","54.465980","98.23666666666666","981.38","11.540000000000001","7.8133333333333335","4.483333333333333","2023-11-03 09:00:00.0"
"SZKO?A PODSTAWOWA IM. 11 LISTOPADA W ???WINIE","UL. SZKOLNA","05-807","???WIN","20.7249857","52.09761779588044","76.36666666666666","978.8916666666668","12.1","3.641666666666667","3.341666666666667","2023-11-03 09:00:00.0"
"SZKO?A PODSTAWOWA IM. MIKO?AJA REJA W GORZYCZKACH","UL. WIEJSKA","44-350","GORZYCZKI","18.399689","49.944774","99.90000000000002","958.5","14.266666666666666","2.466666666666667","1.4666666666666668","2023-11-03 09:00:00.0"
"SZKO?A PODSTAWOWA IM. STEFANA CZARNIECKIEGO W TYKOCINIE","UL. JANA KOCHANOWSKIEGO","16-080","TYKOCIN","22.7740605","53.2062669","81.85833333333333","983.875","8.791666666666666","11.799999999999999","10.716666666666667","2023-11-03 09:00:00.0"
"PUBLICZNA SZKO?A PODSTAWOWA W ROZMIERCE","SZKOLNA","47-171","ROZMIERKA","18.26905","50.560720","91.46","968.4466666666667","13.126666666666667","6.883333333333334","3.8800000000000003","2023-11-03 09:00:00.0"
"SZKO?A PODSTAWOWA IM. BOHATER?W WESTERPLATTE W KO?CZYCACH WIELKICH","UL. KO?CIELNA","43-419","KO?CZYCE WIELKIE","18.644137","49.8345649","72.425","959.0666666666666","15.1","2.0916666666666663","1.6833333333333333","2023-11-03 09:00:00.0"
"PUBLICZNA SZKO?A PODSTAWOWA IM.DR.M.PAPUZI?SKIEGO W CIEPIELOWIE","UL. LEKARSKA","27-310","CIEPIEL?W","21.5252738","51.2346803","70.1","976.8999999999999","12.76923076923077","3.7461538461538457","3.6153846153846154","2023-11-03 09:00:00.0"
"SZKO?A PODSTAWOWA Z ODDZIA?AMI INTEGRACYJNYMI W STARYM JANOWIE","","58-140","STARY JAWOR?W","16.42954530","50.89056880","88.46666666666665","960.65","10.133333333333333","5.95","5.308333333333334","2023-11-03 09:00:00.0"
"SZKO?A PODSTAWOWA IM. LOTNIK?W POLSKICH W P?OCICZNIE-TARTAK","","unknow","P?OCICZNO-TARTAK","22.983029328835258","54.02273741338736","79.575","979.5916666666667","7.416666666666667","8.6","8.891666666666667","2023-11-03 09:00:00.0"
"SZKO?A PODSTAWOWA IM. B.CHROBREGO W RYBARZOWICACH","UL. BESKIDZKA","43-378","RYBARZOWICE","19.1030526","49.7294784","69.52499999999999","942.0416666666666","15.025","3.4250000000000003","2.9250000000000003","2023-11-03 09:00:00.0"
"SZKO?A PODSTAWOWA IM. ?W. FRANCISZKA Z ASY?U W JELNEJ","","37-310","JELNA","22.3518669","50.2962689","73.31","975.1299999999999","8.59","17.44","16.56","2023-11-03 09:00:00.0"
"SZKO?A PODSTAWOWA NR 2 IM. IRENY SENDLEROWEJ W OTWOCKU","UL. PONIATOWSKIEGO","05-400","OTWOCK","21.287","52.09742","97.4","981.0769230769231","12.107692307692307","14.46923076923077","14.061538461538463","2023-11-03 09:00:00.0"
"SZKO?A PODSTAWOWA NR 1 IM. PIESZYCKIEJ HARCERSKIEJ ORGANIZACJI PODZIEMNEJ W PIESZYCACH","UL. OGRODOWA","58-250","PIESZYCE","16.585028","50.713016","89.10000000000001","954.5","9.666666666666666","3.608333333333334","3.1833333333333336","2023-11-03 09:00:00.0"
"SZKO?A PODSTAWOWA NR 3 W ZAWIERCIU","UL. MARII SK?ODOWSKIEJ-CURIE","42-400","ZAWIERCIE","19.4347172","50.4796517","70.36666666666666","950.75","12.008333333333333","2.6166666666666667","1.825","2023-11-03 09:00:00.0"
"SZKO?A PODSTAWOWA NR 3 IM. JANUSZA KUSOCI?SKIEGO W LEGIONOWIE","UL. W?ADYS?AWA BRONIEWSKIEGO","unknow","LEGIONOWO","20.92648791534102","52.39938577565952","55.85833333333333","983.3166666666666","12.9","4.3999999999999995","3.4333333333333336","2023-11-03 09:00:00.0"
"SZKO?A PODSTAWOWA NR 2 W RYDU?TOWACH","UL. RACIBORSKA","44-280","RYDU?TOWY","18.429921","50.0757421","71.57142857142857","955.2428571428571","16.514285714285712","4.142857142857143","3.1","2023-11-03 09:00:00.0"
"ZESP?? SZKOLNO-PRZEDSZKOLNY W KO?CIELNIKU","KO?CIELNIK","59-800","KO?CIELNIK","15.29682","51.08393","94.07333333333334","980.8766666666667","12.576666666666668","11.536666666666667","6.346666666666667","2023-11-03 09:00:00.0"
"LICEUM OG?LNOKSZTA?C?CE W CZ?UCHOWIE","UL. JANUSZA KUSOCI?SKIEGO","77-300","CZ?UCH?W","17.36617595","53.66292375","91.83333333333333","969.1666666666666","10.508333333333333","12.566666666666668","11.341666666666667","2023-11-03 09:00:00.0"
